,UANUM,UANAME,Population,Latitude,Longitude,4 Week Rate,4 Week TRP,CPP,CPM,AdvertisingCost,PredictedCount,ActualCount,PredictedActualDiff,PercentDiff,Households,HouseholdsPerStation
3,199,"Aberdeen--Bel Air South--Bel Air North, MD",213751,39.519347,-76.185598,122361.3125,156.25,205.6875,8.914375,1905.456570625,18.64,12,6.64,0.510769231,79703,4275.912017167382
5,145,"Aberdeen, SD",25977,45.4647222,-98.4861111,3082.5,1000.0,3.0,8.5,220.8045,1.76,2,-0.24,-0.08,11289,6414.204545454545
9,280,"Abilene, TX",110421,32.4486111,-99.7327778,3502.0833333333007,766.6666666666998,5.25,3.3333333333,368.0699999963193,2.08,2,0.08,0.026666667,41368,19888.46153846154
23,766,"Akron, OH",569499,41.08138889999999,-81.5191667,110788.5625,156.25,182.25,6.158125,3507.046029375,17.34,18,-0.66,-0.034736842000000004,230922,13317.301038062284
27,970,"Albany--Schenectady, NY",594962,42.8141667,-73.94,21228.888888888898,555.5555555556,41.8888888889,5.4444444444,3239.237555529113,47.04,55,-7.96,-0.14214285699999998,237315,5044.961734693878
28,901,"Albany, GA",95779,31.5783333,-84.1558333,8700.0,580.0,16.6,4.9,469.31710000000004,2.16,2,0.16,0.053333333,35813,16580.09259259259
30,955,"Albany, OR",56997,44.6366667,-123.1047222,600.0,200.0,3.0,4.0,227.988,3.82,4,-0.18,-0.036000000000000004,21651,5667.801047120419
32,1009,"Albert Lea, MN",17868,43.648055600000006,-93.3680556,1388.3333333332998,466.6666666667,3.0,12.0,214.416,1.44,2,-0.56,-0.18666666699999998,7864,5461.111111111111
33,1036,"Albertville, AL",36815,34.2675,-86.2088889,1600.0,400.0,4.0,4.0,147.26,1.88,2,-0.12,-0.04,12644,6725.531914893618
35,1090,"Albion, MI",9219,42.24305560000001,-84.7530556,2466.6666666667,400.0,7.0,3.6666666667,33.8030000003073,0.62,1,-0.38,-0.19,3412,5503.225806451613
38,1171,"Albuquerque, NM",741318,35.084444399999995,-106.6505556,17200.0,250.0,70.0,4.5,3335.931,19.9,15,4.9,0.30625,293235,14735.427135678394
43,1279,"Alexandria, LA",82804,31.311111100000005,-92.445,4952.7777777778,844.4444444444,7.2777777778,5.7222222222,473.8228888870488,1.78,2,-0.22,-0.073333333,28852,16208.988764044943
51,1495,"Allentown, PA--NJ",664651,40.6083333,-75.4905556,16605.0,760.0,23.9,7.3,4851.9523,23.02,8,15.02,1.668888889,251873,10941.485664639444
54,1630,"Alma--St. Louis, MI",16924,43.398006,-84.668091,2040.0,720.0,3.0,7.0,118.46799999999999,0.74,1,-0.26,-0.13,5156,6967.5675675675675
60,1765,"Alton, IL--MO",83890,38.890555600000006,-90.1841667,31190.0,280.0,110.6,5.2,436.228,5.26,8,-2.74,-0.304444444,35114,6675.665399239544
61,1792,"Altoona, PA",79930,40.5186111,-78.395,12340.416666666699,1000.0,13.666666666700001,6.75,539.5275,2.4,3,-0.6,-0.15,33060,13775.0
66,1927,"Amarillo, TX",196651,35.2219444,-101.8308333,1050.0,333.3333333333,3.3333333333,3.6666666667,721.0536666732218,4.28,2,2.28,0.76,73812,17245.794392523363
68,2008,"Americus, GA",19106,32.0722222,-84.2327778,5066.6666666667,555.5555555556,9.8888888889,5.7777777778,110.39022222264681,0.92,1,-0.08,-0.04,6670,7250.0
70,2062,"Ames, IA",60438,42.0347222,-93.6197222,500.0,200.0,3.0,5.0,302.19,3.12,2,1.12,0.373333333,23711,7599.679487179487
73,2170,"Amsterdam, NY",22262,42.9386111,-74.18861109999997,21228.888888888898,555.5555555556,41.8888888889,5.4444444444,121.20422222123281,3.24,4,-0.76,-0.152,9326,2878.395061728395
75,2224,"Anacortes, WA",16712,48.5127778,-122.6113889,7754.166666666701,816.6666666666998,10.0833333333,6.416666666699999,107.2353333338904,2.72,3,-0.28,-0.07,7293,2681.25
79,2305,"Anchorage, AK",251243,61.2180556,-149.90027780000003,7754.166666666701,816.6666666666998,10.0833333333,6.416666666699999,1612.142583341708,4.58,1,3.58,1.79,90671,19797.161572052402
80,2359,"Andalusia, AL",6655,31.3083333,-86.4833333,1347.7142857142999,457.1428571429,3.1428571429,8.142857142899999,54.19071428599949,1.12,2,-0.88,-0.29333333300000003,2481,2215.178571428571
82,2413,"Anderson, SC",75702,34.5033333,-82.6502778,1800.0,800.0,2.5,7.0,529.914,2.12,2,0.12,0.04,30792,14524.528301886792
86,2548,"Angola, IN",11196,41.6347222,-84.9994444,1500.0,300.0,6.0,12.0,134.352,0.36,1,-0.64,-0.32,4347,12075.0
87,2602,"Ann Arbor, MI",306022,42.2708333,-83.7263889,4500.0,200.0,23.0,7.0,2142.154,32.02,27,5.02,0.17928571399999998,122746,3833.4166146158645
90,2590,"Annandale, MN",3262,45.2627778,-94.1241667,4944.4444444445,422.2222222222,12.222222222200001,6.1111111111000005,19.9344444444082,0.18,2,-1.82,-0.606666667,1329,7383.333333333334
91,2629,"Anniston--Oxford, AL",79796,33.6141667,-85.835,4985.6,860.0,5.6,5.6,446.8576,1.38,3,-1.62,-0.405,30579,22158.695652173916
93,2683,"Antioch, CA",277634,38.005,-121.8047222,72659.7083333333,156.25,119.5,3.6733333333,1019.8422266574122,8.14,27,-18.86,-0.6735714290000001,87321,10727.395577395577
96,2764,"Appleton, WI",216154,44.2619444,-88.4152778,4956.25,500.0,11.0,4.9166666667,1062.7571666738718,10.2,12,-1.8,-0.138461538,87239,8552.843137254902
103,2926,"Arcata-McKinleyville, CA",32364,40.9466667,-124.0994444,3151.0,300.0,10.5,4.0,129.456,2.78,2,0.78,0.26,12953,4659.3525179856115
111,3142,"Arkansas City, KS",13026,37.0619444,-97.0380556,20320.6875,156.25,33.5,3.68875,48.0496575,0.64,1,-0.36,-0.18,4949,7732.8125
113,3196,"Arroyo Grande--Grover Beach, CA",52000,35.1216667,-120.6202778,6351.75,700.0,10.0,7.75,403.0,12.08,14,-1.92,-0.128,21753,1800.7450331125829
118,3331,"Asheboro, NC",37792,35.7077778,-79.81388890000002,13600.0,840.0,19.8,3.0,113.376,1.64,2,-0.36,-0.12,14831,9043.292682926829
119,3358,"Asheville, NC",280648,35.6008333,-82.5541667,11542.8571428571,714.2857142857001,15.142857142899999,4.0,1122.592,29.46,39,-9.54,-0.2385,119730,4064.154786150713
120,3439,"Ashland City, TN",3384,36.2741667,-87.0641667,39200.7692307692,476.9230769231,83.3846153846,3.7692307692,12.7550769229728,0.0,1,-1.0,-0.5,1458,inf
128,3520,"Aspen, CO",7710,39.1911111,-106.8169444,1550.0,400.0,4.0,7.5,57.825,1.98,2,-0.02,-0.006666666999999999,3590,1813.1313131313132
129,3547,"Astoria, OR",14115,46.18805560000001,-123.83,46783.5,1100.0,46.7,2.1,29.6415,1.08,1,0.08,0.04,6141,5686.11111111111
131,3763,"Athens-Clarke County, GA",128754,33.951935,-83.357567,1000.0,200.0,5.0,4.0,515.016,13.36,18,-4.64,-0.244210526,45131,3378.068862275449
134,3709,"Athens, TN",15985,35.4427778,-84.5930556,1234.375,425.0,3.25,5.375,85.919375,0.72,1,-0.28,-0.14,6268,8705.555555555557
136,3790,"Athol, MA",12834,42.5958333,-72.2272222,31689.0,600.0,53.4,9.0666666667,116.3616000004278,0.54,1,-0.46,-0.23,5204,9637.037037037036
137,3817,"Atlanta, GA",4515419,33.7488889,-84.3880556,64242.25,156.25,106.3125,2.140625,9665.818796874999,264.08,281,-16.92,-0.06,1645076,6229.460769463799
139,3898,"Atlantic City, NJ",248402,39.3641667,-74.4233333,19712.5,475.0,41.375,5.75,1428.3115,7.68,8,-0.32,-0.035555556,94987,12368.098958333334
141,3925,"Atmore, AL",6565,31.023611100000004,-87.4938889,7688.333333333299,911.1111111111001,9.0,5.5555555556,36.472222222514,0.72,1,-0.28,-0.14,2956,4105.555555555556
142,3957,"Atoka, TN",18885,35.4411111,-89.7780556,24436.5416666667,156.25,40.25,2.95375,55.781568750000005,2.82,5,-2.18,-0.363333333,6690,2372.340425531915
146,4021,"Aubrey, TX",4139,33.3041667,-96.9858333,78975.0,145.8333333333,136.9444444444,2.5005555556,10.3497994446284,0.06,1,-0.94,-0.47,1455,24250.0
147,4130,"Auburn--North Auburn, CA",33157,38.8966667,-121.0758333,72659.7083333333,156.25,119.5,3.6733333333,121.79671333222808,6.94,8,-1.06,-0.11777777800000001,13623,1962.9682997118155
148,4033,"Auburn, AL",74741,32.6097222,-85.4808333,7377.5294117647,1023.5294117647001,7.3529411765,5.1764705882,386.8945882326562,3.68,3,0.68,0.17,30407,8262.771739130434
152,4114,"Auburn, NY",32274,42.9316667,-76.5663889,2875.0,600.0,5.5,10.5,338.877,2.8,2,0.8,0.26666666699999997,13117,4684.642857142858
153,4222,"Augusta-Richmond County, GA--SC",386787,33.473498,-82.010515,77550.0,840.0,93.8,5.0,1933.935,23.6,7,16.6,2.075,143969,6100.381355932203
155,4195,"Augusta, ME",22637,44.3105556,-69.78,2300.0,200.0,12.0,4.0,90.548,2.68,3,-0.32,-0.08,10747,4010.0746268656712
159,4357,"Austin, MN",25103,43.6666667,-92.9744444,22930.0,200.0,114.6666666667,4.6666666667,117.14733333417011,2.18,3,-0.82,-0.205,10373,4758.256880733945
160,4384,"Austin, TX",1362416,30.2669444,-97.7427778,58266.6666666667,866.6666666666998,78.1666666667,4.8333333333,6585.010666621252,118.42,124,-5.58,-0.04464,535026,4518.03749366661
162,4438,"Avalon, CA",3652,33.3427778,-118.32694440000002,255338.125,156.25,417.2083333333,3.0004166667,10.9575216667884,0.86,1,-0.14,-0.07,1218,1416.2790697674418
165,4549,"Avondale--Goodyear, AZ",197041,33.4352778,-112.3575,95000.0,300.0,332.5,8.5,1674.8485,6.3,6,0.3,0.042857143,62791,9966.825396825398
166,4573,"Avra Valley, AZ",3869,32.4377778,-111.3147222,23490.7619047619,142.8571428571,40.5714285714,4.4504761905,17.2188923810445,0.26,2,-1.74,-0.58,1311,5042.307692307692
171,4681,"Bakersfield, CA",523994,35.3733333,-119.0177778,44720.181818181794,945.4545454545,47.818181818199996,8.0,4191.952,8.4,5,3.4,0.566666667,164005,19524.40476190476
176,4843,"Baltimore, MD",2203663,39.2902778,-76.6125,122361.3125,156.25,205.6875,8.914375,19644.278355625,172.4,169,3.4,0.02,845706,4905.487238979118
179,4924,"Bandon, OR",3119,43.1191667,-124.4072222,600.0,200.0,3.0,4.0,12.476,0.9,1,-0.1,-0.05,1707,1896.6666666666665
180,4951,"Bangor, ME",61210,44.8011111,-68.7783333,2300.0,200.0,12.0,4.0,244.84,1.82,2,-0.18,-0.06,25028,13751.648351648351
181,5086,"Bar Harbor, ME",2575,44.3875,-68.2044444,266514.0,156.25,441.0625,8.63125,22.22546875,1.18,1,0.18,0.09,1216,1030.5084745762713
187,5167,"Barnstable Town, MA",246695,41.700321,-70.300202,19200.0,500.0,42.25,3.25,801.75875,16.72,20,-3.28,-0.156190476,105368,6301.913875598087
189,5221,"Barre--Montpelier, VT",21675,44.26,-72.5758333,2478.5714285714002,457.1428571429,5.8571428571,7.7142857143,167.2071428574525,6.66,10,-3.34,-0.303636364,9523,1429.8798798798798
193,5329,"Bartlesville, OK",38874,36.7472222,-95.9805556,15211.7647058824,564.7058823529002,29.470588235300003,3.6470588235,141.775764704739,1.02,1,0.02,0.01,16330,16009.803921568628
195,5410,"Basalt--El Jebel, CO",8531,39.395,-107.0897222,1550.0,400.0,4.0,7.5,63.9825,2.64,4,-1.36,-0.272,2869,1086.7424242424242
198,5464,"Bastrop, TX",13371,30.1102778,-97.315,58266.6666666667,866.6666666666998,78.1666666667,4.8333333333,64.6264999995543,0.8,1,-0.2,-0.1,4504,5630.0
205,5680,"Baton Rouge, LA",594309,30.450555600000005,-91.1544444,30347.75,1000.0,31.75,4.0,2377.236,14.8,9,5.8,0.58,223446,15097.702702702702
211,5869,"Bay City, MI",70585,43.59444439999999,-83.88888890000001,4540.0,500.0,9.3333333333,9.3333333333,658.7933333309804,1.28,1,0.28,0.14,29987,23427.34375
213,5923,"Bay Minette, AL",7486,30.8827778,-87.77305559999998,7688.333333333299,911.1111111111001,9.0,5.5555555556,41.5888888892216,0.7,1,-0.3,-0.15,2632,3760.0000000000005
220,6058,"Beaumont, TX",147922,30.0858333,-94.1016667,7860.0,914.2857142857001,8.5714285714,2.8571428571,422.63428570794616,4.88,5,-0.12,-0.02,56964,11672.95081967213
225,6139,"Beckley, WV",64022,37.7780556,-81.1883333,2133.75,483.3333333333,4.6666666667,3.3333333333,213.40666666453262,1.42,2,-0.58,-0.193333333,25400,17887.323943661973
234,6335,"Belfair, WA",3331,47.4508333,-122.8261111,151865.05,142.5,261.0,6.6745,22.2327595,0.66,1,-0.34,-0.17,1046,1584.8484848484848
239,6571,"Belle Plaine, MN",6174,44.6227778,-93.7683333,94235.5,156.25,158.125,4.489375,27.71740125,0.8,1,-0.2,-0.1,2302,2877.5
240,6436,"Bellefontaine, OH",13235,40.3611111,-83.75972220000001,1770.0,440.0,4.8,9.6,127.05599999999998,1.34,2,-0.66,-0.22,5230,3902.9850746268653
244,6652,"Bellingham, WA",114473,48.7597222,-122.4869444,7754.166666666701,816.6666666666998,10.0833333333,6.416666666699999,734.535083337149,7.94,8,-0.06,-0.006666666999999999,46412,5845.340050377834
249,6760,"Beloit, WI--IL",63835,42.5083333,-89.0316667,1690.8333333332998,416.6666666667,4.5,2.9166666667000003,186.18541666879452,1.38,1,0.38,0.19,23884,17307.246376811596
254,6841,"Bemidji, MN",14626,47.47361110000001,-94.88,1761.25,300.0,6.0,13.0,190.138,0.82,1,-0.18,-0.09,5775,7042.682926829269
255,6868,"Bend, OR",83794,44.0583333,-121.31416670000002,600.0,200.0,3.0,4.0,335.176,5.8,5,0.8,0.133333333,34377,5927.068965517242
256,6895,"Bennettsville, SC",13006,34.6172222,-79.685,1250.0,600.0,2.0,7.5,97.545,0.24,1,-0.76,-0.38,3856,16066.666666666668
257,6922,"Bennington, VT",12723,42.8780556,-73.19722220000001,5652.9,380.0,15.6,5.9,75.0657,0.22,2,-1.78,-0.593333333,4792,21781.81818181818
262,7138,"Benton Harbor--St. Joseph--Fair Plain, MI",61022,42.08694439999999,-86.4558333,2712.5,350.0,8.0,4.75,289.8545,2.54,2,0.54,0.18,24138,9503.149606299212
263,7030,"Benton, IL",7778,37.9966667,-88.92,2286.0,440.0,5.8,10.8,84.0024,0.74,1,-0.26,-0.13,3371,4555.405405405406
266,7165,"Berea, KY",15590,37.56861110000001,-84.29638890000003,2025.0,300.0,7.0,11.0,171.49,0.9,2,-1.1,-0.36666666700000006,5723,6358.888888888889
267,7192,"Berlin, NH",11159,44.4686111,-71.1855556,2300.0,200.0,12.0,4.0,44.636,3.6,5,-1.4,-0.233333333,4890,1358.3333333333333
281,7624,"Big Rapids, MI",14241,43.6980556,-85.48361109999998,4046.6666666666997,466.6666666667,11.0,14.666666666700001,208.86800000047472,0.28,1,-0.72,-0.36,4415,15767.857142857141
282,7651,"Big Spring, TX",27987,30.079722200000006,-95.4169444,69809.7222222222,145.8333333333,125.9444444444,2.5772222222,72.1287183327114,0.68,1,-0.32,-0.16,8229,12101.470588235294
285,7732,"Binghamton, NY--PA",158084,42.09861110000001,-75.9183333,5100.0,600.0,9.0,16.0,2529.344,5.54,2,3.54,1.18,63875,11529.783393501804
286,7759,"Birch Bay, WA",12737,48.9180556,-122.7433333,7754.166666666701,816.6666666666998,10.0833333333,6.416666666699999,81.7290833337579,1.32,1,0.32,0.16,5453,4131.060606060606
287,7786,"Birmingham, AL",749495,33.5205556,-86.8025,185164.0,1600.0,116.0,8.0,5995.96,24.74,18,6.74,0.35473684200000005,297050,12006.871463217461
293,7921,"Bismarck, ND",81955,46.8083333,-100.7833333,1695.0,200.0,8.0,34.0,2786.47,2.86,1,1.86,0.93,36222,12665.034965034965
296,8002,"Blacksburg, VA",88542,37.2294444,-80.4141667,4595.0,600.0,8.0,5.0,442.71000000000004,6.12,7,-0.88,-0.11,31784,5193.464052287582
301,8164,"Blairsville, PA",7060,40.4311111,-79.2611111,9100.0,833.3333333333002,12.0,16.0,112.96,0.8,1,-0.2,-0.1,2757,3446.25
308,8326,"Bloomfield, IN",2521,39.0269444,-86.9375,7098.5714285714,457.1428571429,17.0,8.857142857100001,22.3288571427491,0.68,1,-0.32,-0.16,1127,1657.3529411764705
310,8407,"Bloomington--Normal, IL",132600,40.5141667,-88.9905556,5566.666666666701,466.6666666667,12.666666666700001,7.333333333300001,972.3999999955801,25.02,33,-7.98,-0.234705882,50076,2001.4388489208634
311,8380,"Bloomington, IN",108657,39.1652778,-86.52638890000001,7098.5714285714,457.1428571429,17.0,8.857142857100001,962.3905714239148,6.58,5,1.58,0.263333333,41987,6381.003039513677
315,8515,"Bluefield, WV--VA",44092,37.2697222,-81.2225,1563.0,430.76923076919996,3.8461538462,3.7692307692,166.1929230755664,1.62,2,-0.38,-0.12666666699999998,18465,11398.148148148148
325,8785,"Boise City, ID",349684,43.61871,-116.214607,11628.571428571398,400.0,30.0,6.1428571429,2148.0588571578437,11.16,14,-2.84,-0.18933333300000002,139039,12458.691756272401
332,8974,"Bonita Springs, FL",310298,26.339444399999994,-81.77888890000001,16800.0,575.0,32.625,5.625,1745.42625,10.78,5,5.78,0.963333333,128831,11950.927643784788
335,9028,"Boone, IA",12793,42.0597222,-93.88,500.0,200.0,3.0,5.0,63.964999999999996,0.82,1,-0.18,-0.09,5266,6421.951219512195
336,9055,"Boone, NC",22763,36.21666670000001,-81.6747222,908.3333333333001,400.0,2.0,12.0,273.156,2.98,4,-1.02,-0.204,8442,2832.8859060402683
343,9271,"Boston, MA--NH--RI",4181019,42.3583333,-71.0602778,266514.0,156.25,441.0625,8.63125,36087.42024375,310.46,258,52.46,0.202548263,1610426,5187.225407459899
345,9298,"Boulder, CO",114591,40.015,-105.27,800.0,400.0,2.0,6.0,687.5459999999999,23.24,24,-0.76,-0.0304,48883,2103.3993115318417
349,9433,"Bowling Green, OH",30738,40.9458333,-81.4833333,110788.5625,156.25,182.25,6.158125,189.28844625,6.18,8,-1.82,-0.20222222199999998,11334,1833.980582524272
357,9622,"Brainerd, MN",19812,46.35805560000001,-94.2005556,2010.0,333.3333333333,6.666666666699999,8.1666666667,161.7980000006604,0.94,1,-0.06,-0.03,8620,9170.212765957447
359,9676,"Branson, MO",22645,36.6436111,-93.2183333,5100.0,1000.0,5.25,7.25,164.17625,1.76,1,0.76,0.38,8984,5104.545454545455
360,9703,"Brattleboro, VT--NH",9980,42.8508333,-72.5583333,31689.0,600.0,53.4,9.0666666667,90.485333333666,1.36,2,-0.64,-0.213333333,4726,3474.9999999999995
364,9811,"Breckenridge, CO",7179,39.4816667,-106.0377778,1550.0,400.0,4.0,7.5,53.8425,0.94,1,-0.06,-0.03,2815,2994.68085106383
367,9892,"Bremen, GA",6516,33.7211111,-85.1455556,1687.5,733.3333333333002,2.8333333333,6.666666666699999,43.440000000217196,0.84,1,-0.16,-0.08,2397,2853.571428571429
369,9946,"Bremerton, WA",198979,47.5675,-122.6313889,151865.05,142.5,261.0,6.6745,1328.0853355000002,15.74,19,-3.26,-0.163,77580,4928.843710292249
374,10162,"Bridgeport--Stamford, CT--NY",923311,40.712784,-74.005941,300105.0,156.25,494.375,9.6025,8866.0938775,67.04,74,-6.96,-0.0928,338056,5042.601431980906
380,10351,"Bristol--Bristol, TN--VA",69501,36.585627,-82.15746800000002,2597.1538461539003,384.6153846154,7.7692307692,4.0,278.004,2.26,3,-0.74,-0.185,29151,12898.672566371682
389,10594,"Brookhaven, MS",10635,31.578888899999995,-90.4405556,1140.0,400.0,3.3333333333,9.3333333333,99.2599999996455,0.34,2,-1.66,-0.553333333,3998,11758.823529411764
402,11026,"Brunswick, GA",51024,31.1497222,-81.4916667,5705.333333333299,533.3333333333001,11.666666666700001,10.3333333333,527.2479999982993,2.04,2,0.04,0.013333333000000001,19130,9377.450980392157
404,11040,"Brunswick, ME",29159,43.9144444,-69.9658333,2300.0,200.0,12.0,4.0,116.636,1.24,3,-1.76,-0.44,12312,9929.032258064517
409,11175,"Buckhead (Bryan County), GA",5168,31.853236,-81.269778,14080.0,380.0,41.5,5.1,26.3568,0.5,1,-0.5,-0.25,1708,3416.0
413,11269,"Buena Vista, VA",6536,37.7341667,-79.35416670000002,1250.0,200.0,6.0,13.0,84.96799999999999,0.72,1,-0.28,-0.14,2803,3893.0555555555557
416,11350,"Buffalo, NY",935906,42.8863889,-78.87861109999999,43041.5833333333,500.0,89.75,6.75,6317.3655,41.7,38,3.7,0.094871795,392314,9408.009592326138
420,11431,"Bullhead City, AZ--NV",48656,35.1477778,-114.5675,6163.6363636364,472.72727272730003,13.5454545455,6.7272727273,327.3221818195088,1.02,1,0.02,0.01,20246,19849.019607843136
425,11593,"Burkburnett, TX",10002,34.0977778,-98.5702778,600.0,200.0,3.0,9.5,95.019,0.7,1,-0.3,-0.15,4152,5931.428571428572
428,11674,"Burlington, IA--IL",29569,40.8075,-91.1127778,2187.5,300.0,7.25,25.5,754.0095,1.82,1,0.82,0.41,12612,6929.670329670329
429,11701,"Burlington, KS",2503,38.1944444,-95.7425,1126.0,466.6666666667,2.6666666667,6.0,15.018,0.26,1,-0.74,-0.37,1073,4126.923076923077
430,11728,"Burlington, NC",119911,36.0955556,-79.4380556,2500.0,200.0,13.0,10.0,1199.1100000000001,3.6,7,-3.4,-0.425,48401,13444.722222222223
431,11755,"Burlington, VT",108740,44.4758333,-73.2125,2478.5714285714002,457.1428571429,5.8571428571,7.7142857143,838.851428572982,15.72,23,-7.28,-0.303333333,44106,2805.7251908396947
432,11782,"Burlington, WI",23534,42.67805560000001,-88.2761111,33750.0,700.0,53.375,4.125,97.07775,2.28,3,-0.72,-0.18,9023,3957.4561403508774
445,12106,"Byron, MN",4864,44.0327778,-92.6452778,22930.0,200.0,114.6666666667,4.6666666667,22.6986666668288,0.62,1,-0.38,-0.19,1702,2745.1612903225805
458,12457,"Calhoun, GA",31493,34.5025,-84.95111109999998,2078.5714285714002,714.2857142857001,3.1428571429,6.2857142857,197.9559999995501,2.38,3,-0.62,-0.155,10295,4325.63025210084
462,12646,"Calistoga, CA",5155,38.5788889,-122.5786111,3712.3333333333003,466.6666666667,10.0,15.0,77.325,0.58,3,-2.42,-0.605,2068,3565.5172413793107
465,12754,"Camarillo, CA",71772,34.2163889,-119.0366667,255338.125,156.25,417.2083333333,3.0004166667,215.3459050023924,6.12,7,-0.88,-0.11,26087,4262.581699346405
470,12835,"Cambridge, MN",14270,45.5727778,-93.2241667,94235.5,156.25,158.125,4.489375,64.06338124999999,0.5,2,-1.5,-0.5,5678,11356.0
484,13221,"Canby, OR",17119,45.2630556,-122.6913889,46783.5,1100.0,46.7,2.1,35.9499,0.58,1,-0.42,-0.21,5900,10172.41379310345
488,13348,"Canton, NY",6489,44.5955556,-75.1694444,500.0,400.0,1.0,1.0,6.489,1.62,2,-0.38,-0.12666666699999998,1725,1064.8148148148148
489,13375,"Canton, OH",279245,40.7988889,-81.37861109999999,2375.0,300.0,8.5,4.0,1116.98,6.32,6,0.32,0.04571428599999999,113904,18022.78481012658
494,13510,"Cape Coral, FL",530290,26.5625,-81.94972220000002,16800.0,575.0,32.625,5.625,2982.88125,12.6,10,2.6,0.23636363600000002,204432,16224.761904761905
497,13564,"Carbondale, CO",7159,39.4022222,-107.2105556,1550.0,400.0,4.0,7.5,53.692499999999995,0.5,3,-2.5,-0.625,2292,4584.0
498,13591,"Carbondale, IL",67821,37.7272222,-89.2166667,3060.0,400.0,8.5714285714,5.2857142857,358.4824285704597,3.46,4,-0.54,-0.10800000000000001,27155,7848.2658959537575
504,13821,"Carlton, OR",3178,45.2944444,-123.1752778,600.0,200.0,3.0,4.0,12.712,0.02,1,-0.98,-0.49,1013,50650.0
506,13850,"Carmel Valley Village, CA",3122,36.4861111,-121.7227778,10606.25,500.0,23.5,5.0,15.61,1.68,1,0.68,0.34,1164,692.8571428571429
511,14023,"Carrollton, GA",42872,33.58,-85.0766667,1687.5,733.3333333333002,2.8333333333,6.666666666699999,285.8133333347624,3.02,4,-0.98,-0.196,14907,4936.092715231788
515,14158,"Carson City, NV",58079,39.1638889,-119.7663889,20514.8125,156.25,33.5,6.166875,358.16593312500004,3.16,5,-1.84,-0.306666667,22192,7022.784810126582
523,14401,"Casa Grande, AZ",51331,32.8794444,-111.7566667,95000.0,300.0,332.5,8.5,436.31350000000003,1.4,1,0.4,0.2,18388,13134.285714285716
529,14570,"Castle Rock, WA",2514,46.2752778,-122.9063889,46783.5,1100.0,46.7,2.1,5.2794,0.74,1,-0.26,-0.13,1214,1640.5405405405406
533,14698,"Cedar City, UT",33200,37.6775,-113.0611111,20065.6875,156.25,33.5,2.11125,70.0935,1.06,1,0.06,0.03,10986,10364.150943396226
534,14752,"Cedar Rapids, IA",177844,42.0083333,-91.6438889,10918.4615384615,938.4615384614999,12.2307692308,5.4615384615,971.301846147006,8.04,6,2.04,0.291428571,73914,9193.283582089553
543,14968,"Central City, NE",2821,41.1158333,-98.0013889,3222.25,1000.0,3.25,5.0,14.105,0.7,1,-0.3,-0.15,1234,1762.857142857143
544,15022,"Centralia, IL",17296,38.525,-89.1333333,983.3333333333001,400.0,2.6666666667,7.0,121.072,0.44,2,-1.56,-0.52,7382,16777.272727272728
546,15076,"Centralia, WA",39517,46.7163889,-122.95305559999998,151865.05,142.5,261.0,6.6745,263.75621650000005,2.8,3,-0.2,-0.05,14911,5325.357142857143
552,15184,"Chambersburg, PA",50887,39.9375,-77.6613889,5187.0,560.0,9.2,10.2,519.0473999999999,1.72,2,-0.28,-0.093333333,20278,11789.534883720931
553,15211,"Champaign, IL",145361,40.1163889,-88.2433333,2500.0,200.0,13.0,6.0,872.1659999999999,12.36,4,8.36,1.672,57574,4658.090614886732
559,15373,"Charles City, IA",7706,43.0663889,-92.6722222,10918.4615384615,938.4615384614999,12.2307692308,5.4615384615,42.086615384319,0.72,1,-0.28,-0.14,3431,4765.277777777778
560,15600,"Charles Town--Ranson, WV",21019,39.295,-77.8608333,2500.0,200.0,12.5,9.0,189.171,1.22,1,0.22,0.11,7692,6304.918032786885
561,15508,"Charleston--North Charleston, SC",548404,32.77638889999999,-79.9311111,4800.0,200.0,24.0,12.0,6580.848,18.64,15,3.64,0.2275,216287,11603.37982832618
565,15481,"Charleston, WV",153199,38.3497222,-81.6327778,3214.25,300.0,11.0,5.0,765.9950000000001,5.12,3,2.12,0.53,66737,13034.5703125
568,15589,"Charlestown, RI",2942,41.38305560000001,-71.6422222,3830.0,466.6666666667,8.3333333333,4.0,11.768,1.94,3,-1.06,-0.265,1363,702.5773195876288
569,15616,"Charlevoix, MI",4179,45.3180556,-85.2583333,4046.6666666666997,466.6666666667,11.0,14.666666666700001,61.29200000013931,0.74,1,-0.26,-0.13,1900,2567.5675675675675
571,15670,"Charlotte, NC--SC",1249442,35.226944399999994,-80.8433333,1053.8461538462,476.9230769231,2.5384615385,4.6153846154,5766.655384634607,61.66,59,2.66,0.044333332999999996,483928,7848.329549140448
572,15724,"Charlottesville, VA",92359,38.02916670000001,-78.47694440000002,8100.0,360.0,24.6,13.2,1219.1388,8.16,8,0.16,0.017777778,36097,4423.651960784314
574,15769,"Chatfield, MN",2604,43.8455556,-92.1888889,1702.8571428572,600.0,3.1428571429,7.4285714286,19.3440000000744,0.74,1,-0.26,-0.13,1069,1444.5945945945946
576,15832,"Chattanooga, TN--GA",381112,35.04555560000001,-85.30972220000002,7438.888888888899,666.6666666666999,14.0,2.8888888889,1100.9902222264568,21.72,31,-9.28,-0.29,152875,7038.443830570903
579,15913,"Chelan, WA",5704,47.841111100000006,-120.0152778,2668.75,825.0,3.0,3.375,19.250999999999998,2.82,4,-1.18,-0.23600000000000002,2169,769.1489361702128
580,15940,"Chelsea, MI",5329,42.3180556,-84.0205556,4500.0,200.0,23.0,7.0,37.303,1.72,2,-0.28,-0.093333333,2416,1404.6511627906978
593,16237,"Cheyenne, WY",73588,41.14,-104.8197222,800.0,400.0,2.0,6.0,441.52799999999996,3.48,4,-0.52,-0.10400000000000001,29841,8575.0
594,16264,"Chicago, IL--IN",8608208,41.85,-87.65,140155.083333333,156.25,233.6666666667,3.1816666667,27388.448453620276,269.82,348,-78.18,-0.22401146100000002,3122451,11572.34823215477
596,16318,"Chico, CA",98176,39.7286111,-121.8363889,6363.0,400.0,16.0,4.0,392.704,7.1,7,0.1,0.0125,38470,5418.30985915493
604,16615,"Chisholm, MN",4622,47.4891667,-92.8836111,7824.285714285699,600.0,13.4285714286,5.5,25.421,0.42,1,-0.58,-0.29,2104,5009.52380952381
606,16696,"Chowchilla, CA",11843,37.1230556,-120.2591667,8432.0,800.0,10.833333333299999,8.0,94.744,0.58,1,-0.42,-0.21,4235,7301.724137931035
607,16777,"Christopher, IL",3610,37.9725,-89.05333329999998,3060.0,400.0,8.5714285714,5.2857142857,19.081428571377,0.0,1,-1.0,-0.5,1621,inf
610,16885,"Cincinnati, OH--KY--IN",1624827,39.1619444,-84.4569444,34800.0,500.0,72.0,3.75,6093.10125,54.0,32,22.0,0.666666667,634071,11742.055555555555
613,17047,"Clanton, AL",5785,32.8386111,-86.6294444,7073.333333333299,800.0,9.3333333333,10.0,57.85,2.12,3,-0.88,-0.22,2471,1165.566037735849
620,17236,"Clarksburg, WV",43988,39.28055560000001,-80.3447222,2548.0,400.0,6.666666666699999,7.1111111111000005,312.8035555550668,1.66,2,-0.34,-0.11333333300000001,17648,10631.325301204819
623,17317,"Clarksville, TN--KY",158655,36.5297222,-87.3594444,10055.3571428571,685.7142857143,16.428571428599998,6.0714285714,963.262499995467,4.18,5,-0.82,-0.136666667,56060,13411.483253588518
627,17420,"Clayton, GA",3372,34.8780556,-83.4011111,3625.0,500.0,8.25,4.5,15.174,0.16,5,-4.84,-0.806666667,1286,8037.5
628,17560,"Cle Elum, WA",3539,47.19555560000001,-120.93805559999998,2668.75,825.0,3.0,3.375,11.944125,0.64,1,-0.36,-0.18,1785,2789.0625
637,17668,"Cleveland, OH",1780673,41.4994444,-81.69555559999998,110788.5625,156.25,182.25,6.158125,10965.606918125,57.7,23,34.7,1.4458333330000002,733600,12714.038128249565
639,17722,"Cleveland, TN",66777,35.1594444,-84.8766667,1893.3333333332998,400.0,5.0,4.3333333333,289.3669999977741,1.82,1,0.82,0.41,25154,13820.87912087912
643,17870,"Clifton Springs, NY",6444,41.0161111,-72.1597222,3830.0,466.6666666667,8.3333333333,4.0,25.776,0.72,1,-0.28,-0.14,2466,3425.0
650,17992,"Clinton, NC",9538,34.9977778,-78.3236111,3602.5,750.0,5.0,4.125,39.34425,0.4,2,-1.6,-0.533333333,3794,9485.0
653,18100,"Clintonville, WI",4481,44.6205556,-88.76222220000002,1305.0,360.0,4.0,6.8,30.470799999999997,0.72,1,-0.28,-0.14,1849,2568.0555555555557
654,18127,"Cloquet, MN",12936,46.7216667,-92.4591667,7824.285714285699,600.0,13.4285714286,5.5,71.148,1.38,2,-0.62,-0.206666667,5468,3962.3188405797105
655,18154,"Clover, SC",6513,35.1111111,-81.2266667,1053.8461538462,476.9230769231,2.5384615385,4.6153846154,30.0600000001002,0.74,1,-0.26,-0.13,2393,3233.7837837837837
662,18343,"Cobleskill, NY",5618,42.6777778,-74.4858333,21228.888888888898,555.5555555556,41.8888888889,5.4444444444,30.5868888886392,0.72,1,-0.28,-0.14,2022,2808.3333333333335
674,18667,"Coldwater, MI",16876,41.9402778,-85.0005556,1466.6666666667002,400.0,4.0,6.666666666699999,112.5066666672292,0.66,1,-0.34,-0.17,5182,7851.515151515151
677,18712,"Colfax, CA",3144,39.1008333,-120.9522222,72659.7083333333,156.25,119.5,3.6733333333,11.548959999895201,1.5,2,-0.5,-0.166666667,1337,891.3333333333334
679,18748,"College Station--Bryan, TX",171345,30.6741667,-96.3697222,5600.0,342.8571428571,18.571428571400002,7.5714285714,1297.326428566533,8.16,8,0.16,0.017777778,61616,7550.980392156863
684,18856,"Colorado Springs, CO",559409,38.8338889,-104.8208333,13625.0,528.5714285714,25.785714285700003,4.7857142857,2677.1716428491513,22.5,15,7.5,0.46875,216129,9605.733333333334
688,18937,"Columbia, MO",124748,38.9516667,-92.3338889,7360.0,720.0,11.0,7.9,985.5092000000001,5.18,3,2.18,0.545,50071,9666.216216216217
690,18964,"Columbia, SC",549777,34.00055560000001,-81.035,20191.0714285714,885.7142857142999,23.5,3.6428571429,2002.7590714521334,24.98,30,-5.02,-0.161935484,211092,8450.440352281825
691,18991,"Columbia, TN",34965,35.615,-87.03527779999997,2712.5,700.0,4.5,14.75,515.7337500000001,1.62,4,-2.38,-0.47600000000000003,14322,8840.74074074074
695,19099,"Columbus, GA--AL",253602,32.4608333,-84.98777779999998,4773.0,200.0,24.0,5.0,1268.01,7.08,8,-0.92,-0.10222222199999999,94500,13347.457627118643
696,19126,"Columbus, IN",54933,39.2013889,-85.92138890000003,2783.3333333333007,266.6666666667,11.333333333299999,11.333333333299999,622.5739999981688,7.88,2,5.88,1.96,21665,2749.3654822335025
698,19180,"Columbus, MS",31174,33.4955556,-88.4272222,5096.5,1000.0,5.625,9.375,292.25625,1.56,2,-0.44,-0.146666667,12395,7945.51282051282
700,19234,"Columbus, OH",1368035,39.9611111,-82.99888890000003,42830.25,156.25,70.1875,3.75125,5131.841293750001,58.26,35,23.26,0.646111111,542626,9313.868863714384
707,19450,"Commerce, GA",6624,34.203888899999995,-83.4572222,1000.0,200.0,5.0,4.0,26.496,0.04,1,-0.96,-0.48,2406,60150.0
709,19504,"Concord, CA",615968,37.97805560000001,-122.03,114990.576923077,149.0384615385,193.88461538459998,3.4334615385,2114.902436946768,43.52,97,-53.48,-0.545714286,233083,5355.767463235294
710,19558,"Concord, NC",214881,35.4086111,-80.5797222,35100.0,766.6666666666998,54.3333333333,3.8333333333,823.7104999928373,10.26,13,-2.74,-0.19571428600000002,79060,7705.653021442496
711,19531,"Concord, NH",42611,43.2080556,-71.53805559999998,2300.0,200.0,12.0,4.0,170.444,4.04,6,-1.96,-0.28,17496,4330.693069306931
718,19755,"Conroe--The Woodlands, TX",239938,30.1577778,-95.4891667,69809.7222222222,145.8333333333,125.9444444444,2.5772222222,618.3735455502236,13.88,14,-0.12,-0.008,87283,6288.400576368876
720,19801,"Conway, AR",65277,35.0886111,-92.4419444,13892.0,740.0,20.7,3.5,228.4695,2.02,2,0.02,0.006666666999999999,25037,12394.554455445545
721,19828,"Cookeville, TN",44207,36.1627778,-85.5016667,2917.8571428571995,785.7142857142999,4.4285714286,4.0,176.828,3.46,4,-0.54,-0.10800000000000001,17594,5084.971098265896
724,19936,"Coos Bay, OR",31386,43.3666667,-124.21666670000002,600.0,200.0,3.0,4.0,125.544,3.08,4,-0.92,-0.184,12534,4069.4805194805194
730,20152,"Cornelia--Baldwin, GA",18578,34.4916667,-83.5375,3625.0,500.0,8.25,4.5,83.601,0.44,3,-2.56,-0.64,5525,12556.818181818182
735,20287,"Corpus Christi, TX",320069,27.8002778,-97.39611109999998,10655.5384615385,846.1538461538,13.3846153846,3.8461538462,1231.0346153993878,4.92,4,0.92,0.184,117143,23809.552845528455
740,20422,"Corvallis, OR",62433,44.5647222,-123.2608333,600.0,200.0,3.0,4.0,249.732,15.54,21,-5.46,-0.248181818,24296,1563.4491634491635
743,20503,"Cottage Grove, OR",11007,43.7977778,-123.0583333,600.0,200.0,3.0,4.0,44.028,1.36,2,-0.64,-0.213333333,4542,3339.705882352941
771,21220,"Crooked Lake Park, FL",4335,26.8,-80.0666667,85259.25,156.25,140.375,8.7425,37.898737499999996,0.62,1,-0.38,-0.19,1502,2422.5806451612902
777,21394,"Crossville, TN",16337,35.9488889,-85.0269444,1860.0,840.0,2.6,3.6,58.8132,0.36,2,-1.64,-0.546666667,6691,18586.111111111113
779,21448,"Crozet, VA",5527,38.0694444,-78.7008333,1250.0,200.0,6.0,13.0,71.851,2.52,4,-1.48,-0.29600000000000004,2106,835.7142857142857
781,21529,"Crystal River, FL",4388,28.9022222,-82.5927778,3300.0,400.0,8.8333333333,6.5,28.522,1.42,2,-0.58,-0.193333333,2088,1470.4225352112676
795,21928,"Dahlgren, VA--MD",3515,38.3311111,-77.0513889,342597.875,156.25,556.5652173912999,11.014166666700001,38.71479583345051,1.48,2,-0.52,-0.173333333,1231,831.7567567567568
796,21934,"Dahlonega, GA",4812,34.5325,-83.985,3625.0,500.0,8.25,4.5,21.654,0.68,1,-0.32,-0.16,1332,1958.8235294117646
799,22042,"Dallas--Fort Worth--Arlington, TX",5121892,32.735555600000005,-97.1077778,50775.0,400.0,155.5,3.0,15365.676,223.62,238,-14.38,-0.060167364,1870678,8365.432430015204
801,22069,"Dalton, GA",85239,34.769722200000004,-84.97027779999998,3184.6153846153998,723.0769230769,5.3076923077,3.5384615385000004,301.61492308020155,1.32,1,0.32,0.16,28540,21621.21212121212
803,22096,"Danbury, CT--NY",168136,41.3947222,-73.4544444,11742.5,200.0,59.0,8.25,1387.122,13.3,14,-0.7,-0.046666667,61144,4597.293233082706
806,22204,"Danville, IL",50996,40.1244444,-87.63,1255.5555555556,511.1111111111,3.0,3.4444444444,175.6528888866224,1.22,1,0.22,0.11,19740,16180.327868852459
807,22231,"Danville, KY",18887,37.6455556,-84.7722222,2025.0,300.0,7.0,11.0,207.757,0.54,2,-1.46,-0.48666666700000005,7401,13705.555555555555
808,22253,"Danville, VA--NC",49344,36.5858333,-79.39527779999997,2500.0,200.0,13.0,10.0,493.44,2.64,3,-0.36,-0.09,21187,8025.378787878787
809,22285,"Daphne--Fairhope, AL",57383,30.5227778,-87.9033333,7688.333333333299,911.1111111111001,9.0,5.5555555556,318.7944444469948,5.96,2,3.96,1.32,23876,4006.040268456376
812,22366,"Davenport, IA--IL",280051,41.5236111,-90.5775,37201.0,800.0,50.375,8.125,2275.414375,7.16,8,-0.84,-0.093333333,114751,16026.675977653631
815,22420,"Davis, CA",72794,38.545,-121.7394444,72659.7083333333,156.25,119.5,3.6733333333,267.3966266642402,20.48,30,-9.52,-0.30709677399999996,25315,1236.083984375
819,22528,"Dayton, OH",724091,39.7588889,-84.1916667,44208.3333333333,1111.1111111111,42.222222222199996,4.3333333333,3137.72766664253,20.8,20,0.8,0.038095238,297023,14279.951923076922
828,23986,"De Witt, IA",4639,41.8233333,-90.5380556,37201.0,800.0,50.375,8.125,37.691875,0.78,1,-0.22,-0.11,2007,2573.076923076923
829,22690,"Decatur, AL",70436,34.6058333,-86.9833333,5936.3636363636,818.1818181817999,7.454545454500001,5.454545454500001,384.1963636331621,2.1,2,0.1,0.033333333,27490,13090.47619047619
830,22717,"Decatur, IL",93863,39.8402778,-88.9547222,4195.4545454546005,636.3636363636,8.0,7.0,657.0409999999999,2.24,2,0.24,0.08,38521,17196.875
838,22960,"DeKalb, IL",68545,41.9294444,-88.75027779999998,8437.5,575.0,17.125,6.125,419.838125,1.92,1,0.92,0.46,24754,12892.708333333334
839,23203,"Del Rio, TX",43914,29.3625,-100.8963889,3558.3333333333007,766.6666666666998,5.5,5.0,219.57,1.64,2,-0.36,-0.12,13499,8231.09756097561
842,23041,"Delavan, WI",12158,42.63305560000001,-88.64361109999999,2692.0,320.0,8.4,8.4,102.1272,1.52,2,-0.48,-0.16,4604,3028.9473684210525
851,23311,"Deltona, FL",182169,28.9002778,-81.26388890000001,92097.1875,156.25,152.6875,4.960625,903.6720956250001,6.5,6,0.5,0.071428571,65499,10076.76923076923
857,23500,"Denton--Lewisville, TX",366174,33.046111100000005,-96.9938889,50775.0,400.0,155.5,3.0,1098.522,22.08,32,-9.92,-0.30060606100000004,132377,5995.335144927537
860,23527,"Denver--Aurora, CO",2374203,39.7294444,-104.8313889,4550.0,200.0,23.0,8.5,20180.7255,197.76,131,66.76,0.505757576,945127,4779.161610032363
864,23743,"Des Moines, IA",450070,41.60055560000001,-93.6088889,36386.5625,156.25,59.5625,6.965,3134.73755,13.96,14,-0.04,-0.002666667,181323,12988.753581661891
867,23824,"Detroit, MI",3734090,42.33138889999999,-83.0458333,77750.0,650.0,126.0,3.25,12135.7925,141.98,124,17.98,0.14384,1440714,10147.302436962953
875,24121,"Dickson, TN",16016,36.0769444,-87.3877778,10055.3571428571,685.7142857143,16.428571428599998,6.0714285714,97.23999999954239,1.88,3,-1.12,-0.28,6354,3379.7872340425533
880,24256,"Discovery Bay, CA",14044,37.9086111,-121.5991667,10606.25,500.0,23.5,5.0,70.22,3.04,4,-0.96,-0.192,4917,1617.4342105263158
881,24283,"Dixon, CA",18445,38.44555560000001,-121.8222222,72659.7083333333,156.25,119.5,3.6733333333,67.7546333327185,1.56,2,-0.44,-0.146666667,5973,3828.846153846154
882,24310,"Dixon, IL",16858,41.83888889999999,-89.4794444,8437.5,575.0,17.125,6.125,103.25525,1.36,2,-0.64,-0.213333333,6148,4520.588235294117
890,24472,"Dothan, AL",68781,31.22305560000001,-85.3905556,17884.0,500.0,36.125,17.0,1169.277,2.22,2,0.22,0.073333333,26708,12030.630630630629
895,24607,"Dover--Rochester, NH--ME",88087,43.188516,-70.886492,2300.0,200.0,12.0,4.0,352.348,4.46,3,1.46,0.365,33507,7512.780269058296
896,24580,"Dover, DE",110769,39.1580556,-75.52472220000001,7344.0,320.0,22.8,5.4,598.1526000000001,4.22,4,0.22,0.044000000000000004,38210,9054.502369668247
898,24646,"Downs, IL",2666,40.3969444,-88.8705556,5566.666666666701,466.6666666667,12.666666666700001,7.333333333300001,19.5506666665778,0.92,1,-0.08,-0.04,786,854.3478260869565
901,24715,"Dublin, GA",20999,32.5402778,-82.90388890000001,1125.0,300.0,4.0,7.0,146.993,2.0,3,-1.0,-0.25,7624,3812.0
904,24823,"Dubuque, IA--IL",67818,42.50055560000001,-90.6644444,4579.4117647059,800.0,6.2352941176,6.7647058824,458.7688235326032,5.04,6,-0.96,-0.13714285699999998,27775,5510.912698412699
905,24850,"Duluth, MN--WI",120378,46.7833333,-92.1063889,7824.285714285699,600.0,13.4285714286,5.5,662.079,6.3,7,-0.7,-0.0875,49839,7910.952380952381
910,25012,"Dunkirk--Fredonia, NY",25514,42.44,-79.3319444,4775.0,800.0,6.0,17.3333333333,442.2426666658162,2.56,3,-0.44,-0.11,10247,4002.734375
915,25147,"Durango, CO",17982,37.2752778,-107.8794444,2750.0,775.0,3.625,3.375,60.68925,3.2,3,0.2,0.05,7604,2376.25
918,25228,"Durham, NC",347602,35.99388889999999,-78.8988889,17940.0,400.0,45.6666666667,10.3333333333,3591.8873333217466,32.74,35,-2.26,-0.06277777799999999,141384,4318.3872938301765
919,25255,"Dwight, IL",5353,41.09444439999999,-88.425,5566.666666666701,466.6666666667,12.666666666700001,7.333333333300001,39.2553333331549,0.72,1,-0.28,-0.14,1584,2200.0
921,25309,"Dyersburg, TN",21903,36.0344444,-89.3855556,1455.7142857142999,771.4285714286,2.2857142857,5.4285714286,118.90200000062579,1.84,2,-0.16,-0.053333333,8940,4858.695652173913
928,25390,"Eagle, CO",6073,39.6552778,-106.82805559999998,800.0,400.0,2.0,6.0,36.438,0.76,1,-0.24,-0.12,1807,2377.6315789473683
936,25849,"East Stroudsburg, PA--NJ",54316,40.9866667,-75.195,51600.0,766.6666666666998,62.8333333333,4.8333333333,262.5273333315228,1.6,1,0.6,0.3,18879,11799.375
947,26038,"Eau Claire, WI",102852,44.8113889,-91.4983333,18778.4615384615,553.8461538462001,34.3076923077,7.5384615385,775.345846157802,5.04,4,1.04,0.20800000000000002,42304,8393.650793650793
956,26275,"Edwards, CO",17326,39.645,-106.5936111,800.0,400.0,2.0,6.0,103.956,3.7,1,2.7,1.35,5836,1577.2972972972973
962,26470,"El Dorado, AR",18944,33.2075,-92.6661111,1828.0,600.0,3.0,8.0,151.552,1.44,2,-0.56,-0.18666666699999998,7453,5175.694444444444
963,26524,"El Dorado, KS",14724,37.8172222,-96.8619444,20320.6875,156.25,33.5,3.68875,54.313155,0.7,1,-0.3,-0.15,5147,7352.857142857143
964,27261,"El Paso de Robles (Paso Robles)--Atascadero, CA",65088,35.4894444,-120.6697222,6351.75,700.0,10.0,7.75,504.43199999999996,4.42,4,0.42,0.084,24316,5501.3574660633485
966,27253,"El Paso, TX--NM",803086,31.758611100000003,-106.4863889,20832.0,1040.0,22.6,3.0,2409.258,19.46,23,-3.54,-0.1475,254446,13075.334018499485
973,26659,"Elgin, TX",10043,30.3494444,-97.37,58266.6666666667,866.6666666666998,78.1666666667,4.8333333333,48.5411666663319,0.3,2,-1.7,-0.566666667,3449,11496.666666666668
974,26686,"Elizabeth City, NC",23905,36.2944444,-76.25138890000002,2793.75,750.0,3.875,6.625,158.37062500000002,1.84,2,-0.16,-0.053333333,8782,4772.826086956522
975,26750,"Elizabethtown--Radcliff, KY",73467,37.8402778,-85.9491667,750.0,200.0,4.0,6.0,440.802,2.16,1,1.16,0.58,27779,12860.648148148148
977,26767,"Elk City, OK",10855,35.4119444,-99.4038889,600.0,200.0,3.0,9.5,103.1225,1.64,2,-0.36,-0.12,4071,2482.317073170732
978,26794,"Elkhart, IN--MI",143592,43.3504,-84.5603,2040.0,720.0,3.0,7.0,1005.1440000000001,2.42,2,0.42,0.14,52401,21653.30578512397
979,26821,"Elkhorn, WI",12484,42.6727778,-88.5444444,2692.0,320.0,8.4,8.4,104.8656,1.28,2,-0.72,-0.24,4723,3689.84375
985,26983,"Ellensburg, WA",20987,46.9966667,-120.54666670000002,6083.333333333299,400.0,14.666666666700001,7.833333333300001,164.3981666659671,2.6,3,-0.4,-0.1,8149,3134.230769230769
986,27010,"Ellenville, NY",6577,41.7169444,-74.39611109999998,300105.0,156.25,494.375,9.6025,63.15564249999999,0.78,1,-0.22,-0.11,2098,2689.74358974359
989,27070,"Ellsworth, ME",2805,44.5433333,-68.42,266514.0,156.25,441.0625,8.63125,24.21065625,0.58,1,-0.42,-0.21,1177,2029.3103448275863
992,27118,"Elmira, NY",67983,42.0897222,-76.8080556,5100.0,600.0,9.0,16.0,1087.728,2.52,2,0.52,0.173333333,27442,10889.682539682539
995,27290,"Elroy, TX",3708,30.120555600000007,-97.635,58266.6666666667,866.6666666666998,78.1666666667,4.8333333333,17.921999999876398,1.32,2,-0.68,-0.226666667,775,587.1212121212121
996,27300,"Elverson, PA",3697,40.1566667,-75.8330556,16605.0,760.0,23.9,7.3,26.9881,0.88,1,-0.12,-0.06,1527,1735.2272727272727
1005,27523,"Emporia, KS",24830,38.4038889,-96.1813889,1126.0,466.6666666667,2.6666666667,6.0,148.98,2.24,3,-0.76,-0.19,9840,4392.857142857142
1008,27592,"Enfield, NC",2672,36.1808333,-77.6669444,5378.25,750.0,7.375,5.625,15.030000000000001,0.8,1,-0.2,-0.1,1048,1310.0
1010,27631,"Enid, OK",47609,36.3955556,-97.8780556,3550.0,400.0,10.5,11.0,523.6990000000001,0.92,1,-0.08,-0.04,18485,20092.391304347824
1012,27685,"Enterprise, AL",36427,31.315,-85.8552778,2700.0,200.0,14.0,21.0,764.967,3.04,3,0.04,0.01,12972,4267.105263157895
1015,27750,"Epping, NH",3490,43.0333333,-71.07472220000002,2300.0,200.0,12.0,4.0,13.96,1.4,2,-0.6,-0.2,1118,798.5714285714287
1016,27766,"Erie, PA",196611,42.1291667,-80.0852778,20383.3333333333,633.3333333333001,34.0,14.5,2850.8595,6.82,4,2.82,0.564,78632,11529.618768328446
1023,27928,"Estes Park, CO",7082,40.3772222,-105.5211111,800.0,400.0,2.0,6.0,42.492,1.14,1,0.14,0.07,3490,3061.40350877193
1028,28090,"Eufaula, AL--GA",9520,31.891111100000003,-85.1455556,4773.0,200.0,24.0,5.0,47.599999999999994,0.16,1,-0.84,-0.42,3604,22525.0
1029,28117,"Eugene, OR",247421,44.0522222,-123.0855556,600.0,200.0,3.0,4.0,989.684,25.24,29,-3.76,-0.12533333300000002,102491,4060.6576862123616
1032,28198,"Eureka, CA",45034,40.8022222,-124.1625,3151.0,300.0,10.5,4.0,180.136,7.62,9,-1.38,-0.138,18757,2461.5485564304463
1037,28333,"Evansville, IN--KY",229351,37.669,-84.6514,2025.0,300.0,7.0,11.0,2522.861,6.76,6,0.76,0.108571429,93510,13832.84023668639
1042,28441,"Evergreen, CO",13556,39.6333333,-105.3166667,800.0,400.0,2.0,6.0,81.336,10.4,11,-0.6,-0.05,5599,538.3653846153846
1044,28495,"Excelsior Springs, MO",10943,39.3391667,-94.2258333,79200.0,1033.3333333333,85.0,5.1666666667,56.5388333336981,0.8,1,-0.2,-0.1,4122,5152.5
1046,28819,"Fair Haven, VT",4181,43.5947222,-73.26611109999997,3450.0,300.0,12.5,10.5,43.9005,0.1,1,-0.9,-0.45,1297,12970.0
1052,28782,"Fairfield Harbour, NC",2726,35.0763889,-76.96388890000001,4021.090909090901,690.9090909091002,6.0909090909,5.3636363636,14.6212727271736,1.08,2,-0.92,-0.306666667,1279,1184.2592592592591
1053,28657,"Fairfield, CA",133683,38.2494444,-122.0388889,114990.576923077,149.0384615385,193.88461538459998,3.4334615385,458.9954388512955,10.14,29,-18.86,-0.6286666670000001,43063,4246.844181459566
1054,28711,"Fairfield, IA",10320,41.0086111,-91.9625,2612.5,300.0,9.0,6.0,61.92,1.54,2,-0.46,-0.15333333300000002,3886,2523.3766233766232
1064,29035,"Fallon, NV",16241,39.47361110000001,-118.7763889,20514.8125,156.25,33.5,6.166875,100.156216875,1.1,1,0.1,0.05,6338,5761.818181818181
1066,29089,"Fargo, ND--MN",176676,46.8772222,-96.7894444,3533.3333333333007,266.6666666667,12.666666666700001,6.333333333300001,1118.947999994111,11.38,2,9.38,3.126666667,75579,6641.388400702987
1076,29359,"Fayette, AL",3408,33.6844444,-87.8308333,9364.75,1100.0,9.35,4.1,13.972799999999998,0.68,1,-0.32,-0.16,1285,1889.705882352941
1078,29494,"Fayetteville--Springdale--Rogers, AR--MO",295083,37.964253,-91.831833,1875.0,200.0,9.5,17.5,5163.9525,13.3,13,0.3,0.021428571,113098,8503.609022556391
1079,29440,"Fayetteville, NC",310282,35.0525,-78.87861109999999,5247.2222222222,555.5555555556,11.222222222200001,3.4444444444,1068.7491110973208,7.06,5,2.06,0.34333333299999996,116631,16519.971671388103
1081,29510,"Fearrington Village, NC",2642,35.80361110000001,-79.0905556,29750.0,300.0,100.5,7.0,18.494,2.3,2,0.3,0.1,1678,729.5652173913044
1090,29737,"Findlay, OH",48441,41.0441667,-83.65,1600.0,485.7142857143,4.0,4.1428571429000005,200.68414285921892,1.5,2,-0.5,-0.166666667,20145,13430.0
1096,29872,"Flint, MI",356218,43.0125,-83.6875,7500.0,400.0,19.0,5.0,1781.0900000000001,6.74,5,1.74,0.29,140783,20887.68545994065
1098,29953,"Florence, AL",77074,34.7997222,-87.6772222,1850.0,433.3333333333,4.6666666667,4.5,346.83299999999997,2.66,3,-0.34,-0.085,33584,12625.563909774435
1101,30034,"Florence, OR",10177,43.9827778,-124.0986111,600.0,200.0,3.0,4.0,40.708,1.4,2,-0.6,-0.2,5132,3665.714285714286
1102,30061,"Florence, SC",89557,34.1952778,-79.7627778,966.6666666666999,300.0,3.6666666667,1.3333333333,119.40933333034809,3.68,4,-0.32,-0.064,35816,9732.608695652174
1108,30223,"Fond du Lac, WI",54901,43.773055600000006,-88.4469444,153087.5,500.0,315.375,4.25,233.32925,2.62,3,-0.38,-0.095,23238,8869.46564885496
1111,30331,"Forest City, NC",26418,35.3338889,-81.86527779999999,3712.5,300.0,13.0,4.0,105.672,0.94,4,-3.06,-0.612,11105,11813.829787234043
1112,30358,"Forest Lake, MN",21816,45.2788889,-92.985,22930.0,200.0,114.6666666667,4.6666666667,101.8080000007272,0.6,2,-1.4,-0.46666666700000003,8330,13883.333333333334
1114,30385,"Forestville, CA",5144,38.47361110000001,-122.88916670000002,3712.3333333333003,466.6666666667,10.0,15.0,77.16,1.46,2,-0.54,-0.18,2143,1467.8082191780823
1119,30520,"Forsyth, MO",6836,36.685,-93.1197222,5100.0,1000.0,5.25,7.25,49.561,0.7,1,-0.3,-0.15,2572,3674.2857142857147
1120,30547,"Fort Atkinson, WI",21105,42.9288889,-88.83694440000002,2050.0,400.0,6.0,6.833333333300001,144.2174999992965,1.88,2,-0.12,-0.04,8395,4465.425531914894
1121,30574,"Fort Bragg, CA",10348,39.4458333,-123.8041667,3712.3333333333003,466.6666666667,10.0,15.0,155.22,0.82,1,-0.18,-0.09,4020,4902.439024390244
1123,30628,"Fort Collins, CO",264465,40.5852778,-105.0838889,800.0,400.0,2.0,6.0,1586.79,26.26,31,-4.74,-0.148125,106172,4043.107387661843
1125,30682,"Fort Dodge, IA",25122,42.4975,-94.1677778,500.0,200.0,3.0,5.0,125.61,0.72,1,-0.28,-0.14,10204,14172.222222222223
1126,30736,"Fort Irwin, CA",8845,37.3969444,-120.8488889,10606.25,500.0,23.5,5.0,44.225,2.22,3,-0.78,-0.195,2306,1038.7387387387387
1135,30898,"Fort Scott, KS",7895,37.8397222,-94.7080556,12175.0,766.6666666666998,16.5833333333,5.666666666699999,44.73833333359649,0.74,1,-0.26,-0.13,2987,4036.4864864864867
1136,30925,"Fort Smith, AR--OK",122947,33.1355556,-92.65,1828.0,600.0,3.0,8.0,983.576,2.32,2,0.32,0.10666666699999999,48240,20793.103448275862
1139,31060,"Fort Walton Beach--Navarre--Wright, FL",191917,30.455555600000004,-86.6383333,8852.222222222199,933.3333333333001,9.6666666667,4.5555555556,874.2885555640852,6.78,4,2.78,0.556,79362,11705.309734513274
1140,31087,"Fort Wayne, IN",313492,39.8877778,-84.9255556,1266.6666666667,433.3333333333,3.3333333333,3.8333333333,1201.7193333228838,7.14,5,2.14,0.35666666700000005,123250,17261.904761904763
1143,31150,"Four Corners, FL",35549,27.9158333,-82.72972220000003,12025.0,200.0,60.0,3.0,106.64699999999999,6.3,8,-1.7,-0.18888888899999998,14195,2253.1746031746034
1148,31249,"Frankfort, KY",35734,38.2008333,-84.8733333,2762.5,500.0,6.25,7.25,259.0715,2.02,2,0.02,0.006666666999999999,15674,7759.40594059406
1150,31450,"Franklin--Highland Lake, NJ",35436,41.1766667,-74.4569444,300105.0,156.25,494.375,9.6025,340.27419,1.4,1,0.4,0.2,13152,9394.285714285716
1154,31330,"Franklin, NH",9582,43.4441667,-71.6477778,2300.0,200.0,12.0,4.0,38.328,2.22,3,-0.78,-0.195,3832,1726.1261261261259
1157,31478,"Fraser, CO",2583,39.945,-105.8166667,800.0,400.0,2.0,6.0,15.498000000000001,0.7,1,-0.3,-0.15,828,1182.857142857143
1159,31519,"Frederick, MD",141576,39.4141667,-77.4108333,5187.0,560.0,9.2,10.2,1444.0751999999998,12.08,10,2.08,0.18909090899999997,53205,4404.387417218543
1162,31600,"Fredericksburg, VA",141238,38.30305560000001,-77.4608333,342597.875,156.25,556.5652173912999,11.014166666700001,1555.6188716713748,12.68,3,9.68,2.42,50246,3962.6182965299686
1168,31843,"Fresno, CA",654628,36.7477778,-119.7713889,32460.75,700.0,54.0,7.5,4909.71,18.04,10,8.04,0.7309090909999999,212810,11796.563192904658
1176,32113,"Gadsden, AL",64172,34.014166700000004,-86.0066667,5721.6363636364,854.5454545455,6.9090909091,6.2727272727,402.5334545437044,1.68,4,-2.32,-0.46399999999999997,25010,14886.904761904763
1178,32167,"Gainesville, FL",187781,29.6513889,-82.325,11296.0625,156.25,18.5,6.889375,1293.693726875,11.2,3,8.2,2.05,73243,6539.553571428572
1179,32194,"Gainesville, GA",130846,34.2977778,-83.8241667,3625.0,500.0,8.25,4.5,588.807,4.9,11,-6.1,-0.5083333329999999,43735,8925.510204081633
1182,32275,"Galena, IL",3165,42.4166667,-90.4288889,4579.4117647059,800.0,6.2352941176,6.7647058824,21.410294117796003,0.82,1,-0.18,-0.09,1438,1753.658536585366
1184,32329,"Galesburg, IL",36001,40.9477778,-90.3711111,525.0,200.0,3.0,4.0,144.004,1.78,2,-0.22,-0.073333333,14635,8221.91011235955
1189,32491,"Galveston, TX",44022,29.301111100000004,-94.7975,69809.7222222222,145.8333333333,125.9444444444,2.5772222222,113.4544766656884,4.76,5,-0.24,-0.04,18691,3926.6806722689075
1191,32572,"Gardnerville Ranchos, NV",20107,38.8883333,-119.7402778,20514.8125,156.25,33.5,6.166875,123.997355625,2.2,2,0.2,0.066666667,8604,3910.9090909090905
1195,32653,"Gastonia, NC--SC",169495,35.2619444,-81.1875,1053.8461538462,476.9230769231,2.5384615385,4.6153846154,782.284615387223,8.82,12,-3.18,-0.244615385,65896,7471.201814058957
1202,32842,"Geneva, NY",29990,42.8688889,-76.9780556,35908.3333333333,733.3333333333002,51.0,5.833333333300001,174.94166666566701,2.64,2,0.64,0.213333333,11757,4453.409090909091
1209,33031,"Georgetown, SC",12320,33.3766667,-79.29472220000002,966.6666666666999,300.0,3.6666666667,1.3333333333,16.426666666256,0.18,1,-0.82,-0.41,4676,25977.777777777777
1216,33328,"Gilroy--Morgan Hill, CA",98413,37.1305556,-121.6533333,10606.25,500.0,23.5,5.0,492.065,5.9,6,-0.1,-0.014285714,30460,5162.71186440678
1224,33598,"Glens Falls, NY",65443,43.3094444,-73.6444444,3450.0,300.0,12.5,10.5,687.1514999999999,3.7,5,-1.3,-0.21666666699999998,27783,7508.918918918918
1226,33652,"Glenwood Springs, CO",11581,39.5505556,-107.3241667,1550.0,400.0,4.0,7.5,86.8575,3.68,5,-1.32,-0.22,4386,1191.8478260869565
1228,33635,"Glenwood, MD",3721,39.2875,-77.0283333,342597.875,156.25,556.5652173912999,11.014166666700001,40.983714166790705,0.84,1,-0.16,-0.08,1046,1245.2380952380952
1232,33733,"Gloversville, NY",29226,43.0527778,-74.3441667,21228.888888888898,555.5555555556,41.8888888889,5.4444444444,159.1193333320344,3.14,4,-0.86,-0.172,11677,3718.789808917197
1235,33798,"Golden Gate Estates, FL",3953,26.22962,-81.63257,16333.333333333301,200.0,82.0,28.0,110.684,0.58,1,-0.42,-0.21,1043,1798.2758620689656
1237,33814,"Goldsboro, NC",61054,35.3847222,-77.9930556,3602.5,750.0,5.0,4.125,251.84775000000002,2.22,2,0.22,0.073333333,24608,11084.684684684684
1254,34219,"Grand Forks, ND--MN",61270,47.9252778,-97.0325,3533.3333333333007,266.6666666667,12.666666666700001,6.333333333300001,388.0433333312911,1.94,2,-0.06,-0.02,25799,13298.453608247422
1256,34273,"Grand Junction, CO",128124,39.0638889,-108.55,2750.0,775.0,3.625,3.375,432.4185,4.44,4,0.44,0.08800000000000001,51507,11600.675675675675
1257,34300,"Grand Rapids, MI",569935,42.9633333,-85.6680556,18370.0,440.0,45.0,5.2,2963.662,19.06,20,-0.94,-0.044761905,217106,11390.661070304302
1258,34327,"Grand Rapids, MN",9285,47.2372222,-93.53,2010.0,333.3333333333,6.666666666699999,8.1666666667,75.8275000003095,0.58,1,-0.42,-0.21,4196,7234.48275862069
1265,34470,"Granite Falls, WA",6129,48.0841667,-121.9675,7754.166666666701,816.6666666666998,10.0833333333,6.416666666699999,39.3277500002043,0.56,1,-0.44,-0.22,2366,4225.0
1267,34516,"Grants Pass, OR",50520,42.4391667,-123.3272222,3151.0,300.0,10.5,4.0,202.08,1.42,1,0.42,0.21,21209,14935.915492957747
1268,34489,"Grants, NM",12152,35.1472222,-107.8508333,2200.0,800.0,3.0,11.75,142.786,0.78,1,-0.22,-0.11,3878,4971.794871794872
1272,34597,"Grass Valley, CA",34308,39.2191667,-121.06,72659.7083333333,156.25,119.5,3.6733333333,126.0247199988564,3.54,1,2.54,1.27,15064,4255.367231638418
1273,34613,"Gray, GA",4566,33.00944439999999,-83.53388890000002,1125.0,300.0,4.0,7.0,31.962,0.74,1,-0.26,-0.13,1578,2132.4324324324325
1278,34759,"Great Falls, MT",65207,47.5002778,-111.3,2031.25,550.0,4.75,6.0,391.24199999999996,2.1,1,1.1,0.55,27136,12921.904761904761
1279,34786,"Greeley, CO",117825,40.4233333,-104.70861109999998,4550.0,200.0,23.0,8.5,1001.5125,3.82,5,-1.18,-0.196666667,41930,10976.439790575916
1280,34813,"Green Bay, WI",206520,44.5191667,-88.0197222,5908.333333333299,500.0,12.833333333299999,4.3333333333,894.919999993116,8.78,9,-0.22,-0.022000000000000002,83441,9503.53075170843
1285,34894,"Greeneville, TN",23957,36.16305560000001,-82.83111109999999,1298.1428571428999,342.8571428571,4.0,5.4285714286,130.0522857149702,1.48,2,-0.52,-0.173333333,9573,6468.243243243243
1287,34975,"Greenfield, MA",22965,42.5875,-72.6,31689.0,600.0,53.4,9.0666666667,208.2160000007655,3.26,4,-0.74,-0.14800000000000002,10155,3115.030674846626
1290,35164,"Greensboro, NC",311810,36.0725,-79.79222220000003,13600.0,840.0,19.8,3.0,935.4300000000001,11.86,6,5.86,0.837142857,126986,10707.0826306914
1293,35272,"Greenville, AL",6026,31.8294444,-86.6177778,12192.0,914.2857142857001,13.4285714286,4.4285714286,26.686571428743598,0.72,1,-0.28,-0.14,2374,3297.222222222222
1295,35326,"Greenville, MI",9743,43.1775,-85.25277779999998,1864.2857142857001,314.2857142857,6.7142857143,9.142857142899999,89.07885714327469,0.68,1,-0.32,-0.16,3823,5622.058823529412
1296,35353,"Greenville, MS",35025,33.41,-91.0616667,3030.2222222222,688.8888888888998,5.5555555556,9.8888888889,346.3583333337225,1.94,2,-0.06,-0.02,12189,6282.98969072165
1297,35380,"Greenville, NC",117798,35.6125,-77.3666667,8460.6666666667,500.0,16.5,9.3333333333,1099.4479999960736,5.32,2,3.32,1.106666667,46281,8699.436090225563
1300,35461,"Greenville, SC",400492,34.8525,-82.3941667,1800.0,800.0,2.5,7.0,2803.444,29.26,39,-9.74,-0.2435,154999,5297.3000683527
1301,35488,"Greenville, TX",23283,33.1383333,-96.1105556,1195.0,600.0,2.6,6.4,149.0112,1.48,2,-0.52,-0.173333333,8599,5810.135135135135
1304,35569,"Greenwood, MS",22380,33.5161111,-90.1794444,1946.25,425.0,5.125,11.5,257.37,1.28,2,-0.72,-0.24,7802,6095.3125
1305,35596,"Greenwood, SC",42103,34.1952778,-82.1619444,77550.0,840.0,93.8,5.0,210.51500000000001,2.4,2,0.4,0.133333333,16518,6882.5
1306,35623,"Grenada, MS",10481,33.76888889999999,-89.8083333,1602.75,400.0,4.25,17.0,178.177,0.28,2,-1.72,-0.573333333,3797,13560.714285714284
1318,35920,"Gulfport, MS",208948,30.3672222,-89.0927778,1410.0,360.0,4.4,22.0,4596.856,3.84,2,1.84,0.6133333329999999,81173,21138.802083333336
1323,36055,"Gustine, CA",5521,37.2577778,-120.9977778,10606.25,500.0,23.5,5.0,27.605,0.54,1,-0.46,-0.23,1897,3512.9629629629626
1327,36190,"Hagerstown, MD--WV--PA",182696,39.6416667,-77.72027779999998,5187.0,560.0,9.2,10.2,1863.4991999999997,9.42,9,0.42,0.042,70962,7533.12101910828
1330,36244,"Haleyville, AL",3922,34.2263889,-87.62138890000001,1850.0,433.3333333333,4.6666666667,4.5,17.649,0.62,1,-0.38,-0.19,1578,2545.1612903225805
1331,36271,"Half Moon Bay, CA",20713,37.4636111,-122.4275,114990.576923077,149.0384615385,193.88461538459998,3.4334615385,71.1172888469505,7.1,2,5.1,1.7,7798,1098.3098591549297
1337,36433,"Hamilton, NY",4427,42.8269444,-75.545,2875.0,600.0,5.5,10.5,46.48349999999999,1.02,1,0.02,0.01,839,822.5490196078431
1339,36514,"Hammond, LA",67629,30.504166700000006,-90.4611111,2221.7857142857,528.5714285714,4.7142857143,3.7857142857,256.02407142760535,2.52,2,0.52,0.173333333,25312,10044.444444444445
1346,36703,"Hanford, CA",87941,36.3275,-119.6447222,6351.75,700.0,10.0,7.75,681.5427500000001,4.66,1,3.66,1.83,27857,5977.8969957081545
1349,36798,"Hardeeville, SC",2957,32.2869444,-81.0808333,14080.0,380.0,41.5,5.1,15.080699999999998,1.52,2,-0.48,-0.16,932,613.1578947368421
1355,36892,"Harlingen, TX",135663,26.1902778,-97.6958333,10655.5384615385,846.1538461538,13.3846153846,3.8461538462,521.7807692370307,2.8,3,-0.2,-0.05,41197,14713.214285714286
1357,36946,"Harriman--Kingston--Rockwood, TN",23515,35.86555560000001,-84.685,1860.0,840.0,2.6,3.6,84.65400000000001,0.84,1,-0.16,-0.08,9887,11770.238095238095
1361,37081,"Harrisburg, PA",444474,40.2736111,-76.88472220000001,25125.0,485.7142857143,52.1428571429,6.5714285714,2920.8291428444436,17.54,15,2.54,0.15875,182168,10385.860889395668
1366,37162,"Harrisonburg, VA",66784,38.4494444,-78.86916670000002,2812.5,300.0,10.25,6.25,417.40000000000003,5.6,7,-1.4,-0.175,22355,3991.964285714286
1369,37232,"Hart, MI",2556,43.6983333,-86.3638889,1837.5,425.0,5.375,14.5,37.062,0.02,1,-0.98,-0.49,847,42350.0
1371,37243,"Hartford, CT",924859,41.76361110000001,-72.6855556,32336.3333333333,533.3333333333001,65.8666666667,6.2666666667,5795.783066697495,64.52,65,-0.48,-0.007272727,361246,5598.977061376318
1373,37405,"Hartsville, SC",15125,34.3738889,-80.0736111,966.6666666666999,300.0,3.6666666667,1.3333333333,20.1666666661625,0.68,1,-0.32,-0.16,6179,9086.764705882353
1380,37594,"Hattiesburg, MS",80358,31.326944399999995,-89.2902778,3735.0,630.7692307692,7.6153846154,5.6153846154,451.24107692431323,1.98,1,0.98,0.49,31605,15962.121212121212
1383,37675,"Havelock, NC",21596,34.8788889,-76.9016667,3267.4285714285998,600.0,5.5714285714,7.4285714286,160.42742857204559,1.66,2,-0.34,-0.11333333300000001,7135,4298.192771084337
1405,38215,"Hemet, CA",163379,33.7475,-116.9711111,62375.0,300.0,212.0,7.5,1225.3425,7.42,5,2.42,0.40333333299999996,57330,7726.415094339623
1406,38242,"Hempstead, TX",5600,30.0972222,-96.0780556,1328.5714285714,371.4285714286,3.8571428571,10.714285714299999,60.00000000007999,0.68,1,-0.32,-0.16,1864,2741.176470588235
1419,38647,"Hickory, NC",212195,35.73305560000001,-81.34138890000001,8875.0,800.0,11.333333333299999,3.5,742.6825,4.88,2,2.88,0.96,80456,16486.885245901638
1423,38809,"High Point, NC",166485,35.95555560000001,-80.0055556,13600.0,840.0,19.8,3.0,499.45500000000004,7.68,7,0.68,0.085,65185,8487.630208333334
1431,38944,"Hillsboro, TX",8328,32.0108333,-97.1297222,1260.0,200.0,6.0,12.0,99.93599999999999,0.82,1,-0.18,-0.09,3074,3748.7804878048782
1435,39052,"Hilo, HI",43925,19.7297222,-155.09,114990.576923077,149.0384615385,193.88461538459998,3.4334615385,150.81479807861248,2.28,6,-3.72,-0.531428571,15424,6764.912280701755
1436,39079,"Hilton Head Island, SC",68998,32.216111100000006,-80.75277779999998,4800.0,200.0,24.0,12.0,827.9760000000001,5.48,4,1.48,0.29600000000000004,28754,5247.080291970802
1437,39133,"Hinesville, GA",51456,31.8466667,-81.59611109999999,1375.0,300.0,5.0,5.75,295.872,3.72,2,1.72,0.573333333,18097,4864.784946236559
1448,39416,"Holiday Shores, IL",2804,38.9219444,-89.9405556,31190.0,280.0,110.6,5.2,14.5808,1.56,2,-0.44,-0.146666667,1032,661.5384615384615
1449,39430,"Holland, MI",99941,42.7875,-86.10888890000003,3020.0,280.0,11.8,11.0,1099.351,19.66,27,-7.34,-0.262142857,35605,1811.0376398779247
1451,39511,"Hollister, CA",42002,36.8525,-121.4005556,10606.25,500.0,23.5,5.0,210.01000000000002,4.28,5,-0.72,-0.12,12751,2979.205607476635
1454,39538,"Holly, MI",8229,42.7919444,-83.62777779999998,7500.0,400.0,19.0,5.0,41.144999999999996,1.72,3,-1.28,-0.32,3077,1788.953488372093
1462,39758,"Homosassa Springs--Beverly Hills--Citrus Springs, FL",80962,28.9972222,-82.4708333,3300.0,400.0,8.8333333333,6.5,526.253,2.76,3,-0.24,-0.06,34504,12501.44927536232
1468,39916,"Hood River, OR--WA",14653,45.7055556,-121.5202778,46783.5,1100.0,46.7,2.1,30.771300000000004,1.2,4,-2.8,-0.56,6061,5050.833333333334
1473,40078,"Hopkinsville, KY",32491,36.86555560000001,-87.48861109999999,10055.3571428571,685.7142857143,16.428571428599998,6.0714285714,197.2667857133574,2.02,2,0.02,0.006666666999999999,13248,6558.415841584158
1479,40213,"Hot Springs, AR",55121,34.5036111,-93.055,1633.3333333332998,700.0,2.5,3.0,165.363,1.36,3,-1.64,-0.41,22471,16522.794117647056
1482,40294,"Houghton, MI",15452,47.1219444,-88.5688889,2956.25,700.0,4.5,12.625,195.0815,1.16,1,0.16,0.08,5709,4921.551724137931
1486,40429,"Houston, TX",4944332,29.763055600000005,-95.3630556,69809.7222222222,145.8333333333,125.9444444444,2.5772222222,12742.642304334571,178.88,136,42.88,0.31299270100000004,1722997,9632.138864042934
1488,40537,"Hudson, NY",11512,42.2527778,-73.79138890000002,21228.888888888898,555.5555555556,41.8888888889,5.4444444444,62.6764444439328,1.08,1,0.08,0.04,5036,4662.962962962963
1493,40645,"Humboldt, TN",8769,35.8197222,-88.9158333,2950.0,300.0,10.5,5.0,43.845,0.64,1,-0.36,-0.18,3798,5934.375
1496,40726,"Huntington, IN",18207,40.88305560000001,-85.4975,850.0,200.0,4.0,10.0,182.07,0.86,1,-0.14,-0.07,6951,8082.558139534884
1497,40753,"Huntington, WV--KY--OH",202637,38.4191667,-82.4452778,11379.0,200.0,57.0,5.75,1165.16275,5.52,9,-3.48,-0.348,82950,15027.17391304348
1498,40780,"Huntsville, AL",286692,34.7302778,-86.5861111,12718.571428571398,714.2857142857001,19.2857142857,4.7142857143,1351.5480000040957,7.8,5,2.8,0.46666666700000003,113726,14580.25641025641
1499,40807,"Huntsville, TX",36928,30.7233333,-95.5505556,2275.0,300.0,8.25,7.25,267.72799999999995,1.64,1,0.64,0.32,10131,6177.439024390244
1503,40915,"Hutchinson, KS",44320,38.0608333,-97.9294444,20320.6875,156.25,33.5,3.68875,163.4854,1.56,2,-0.44,-0.146666667,18037,11562.179487179486
1504,40942,"Hutchinson, MN",14054,44.8877778,-94.3694444,1190.0,300.0,4.0,11.0,154.594,0.72,1,-0.28,-0.14,5894,8186.111111111111
1507,40996,"Idaho Falls, ID",90733,43.46666670000001,-112.03333329999998,2270.0,350.0,7.0,5.5,499.03150000000005,2.58,3,-0.42,-0.105,31471,12198.062015503876
1511,41100,"Incline Village, NV--CA",13022,39.2513889,-119.9719444,20514.8125,156.25,33.5,6.166875,80.30504625,3.48,4,-0.52,-0.10400000000000001,4957,1424.4252873563219
1513,41158,"Independence, KS",9959,37.22416670000001,-95.7080556,895.8,360.0,3.2,6.2,61.7458,0.58,1,-0.42,-0.21,3914,6748.275862068966
1514,41185,"Indiana, PA",28807,40.6213889,-79.1527778,9100.0,833.3333333333002,12.0,16.0,460.912,3.9,2,1.9,0.6333333329999999,11195,2870.512820512821
1515,41212,"Indianapolis, IN",1487483,39.7683333,-86.1580556,45229.0,360.0,133.4,5.8,8627.401399999999,63.58,63,0.58,0.0090625,577679,9085.860333438188
1518,41293,"Indianola, WA",7938,47.7472222,-122.5244444,151865.05,142.5,261.0,6.6745,52.982181,2.78,4,-1.22,-0.244,3150,1133.0935251798562
1519,41320,"Indiantown, FL",6503,27.026944399999994,-80.4858333,9913.75,500.0,20.0,5.5,35.7665,0.64,1,-0.36,-0.18,1442,2253.125
1520,41347,"Indio--Cathedral City, CA",345580,33.7797222,-116.46444440000002,62375.0,300.0,212.0,7.5,2591.85,36.12,50,-13.88,-0.272156863,131377,3637.2369878183836
1527,41590,"Iowa City, IA",106621,41.66111110000001,-91.53,2612.5,300.0,9.0,6.0,639.726,8.88,10,-1.12,-0.101818182,44846,5050.225225225225
1538,41914,"Ithaca, NY",53661,42.4405556,-76.4969444,5100.0,600.0,9.0,16.0,858.576,7.58,5,2.58,0.43,18595,2453.166226912929
1542,42022,"Jackson, AL",2920,31.508888899999995,-87.8944444,15865.5555555556,933.3333333333001,17.888888888900002,5.2222222222,15.248888888824,0.0,1,-1.0,-0.5,1152,inf
1543,42049,"Jackson, CA",7255,38.3488889,-120.7730556,10606.25,500.0,23.5,5.0,36.275,0.84,1,-0.16,-0.08,3188,3795.2380952380954
1546,42157,"Jackson, MI",90057,42.2458333,-84.40138890000001,2466.6666666667,400.0,7.0,3.6666666667,330.2090000030019,2.18,4,-1.82,-0.364,33630,15426.605504587154
1548,42211,"Jackson, MS",351478,32.2986111,-90.1847222,15752.777777777801,911.1111111111001,17.888888888900002,4.0,1405.912,11.1,8,3.1,0.34444444399999996,130511,11757.747747747748
1549,42265,"Jackson, TN",71880,35.6144444,-88.81388890000002,2950.0,300.0,10.5,5.0,359.4,2.64,3,-0.36,-0.09,25906,9812.878787878788
1550,42319,"Jackson, WY",11407,43.48,-110.7616667,630.0,300.0,2.0,6.0,68.44200000000001,2.96,4,-1.04,-0.20800000000000002,4026,1360.1351351351352
1551,42346,"Jacksonville, FL",1065219,30.3319444,-81.6558333,20450.0,300.0,70.5,5.5,5858.7045,52.26,21,31.26,1.420909091,403810,7726.942212016839
1553,42400,"Jacksonville, NC",105419,34.7538889,-77.4305556,4021.090909090901,690.9090909091002,6.0909090909,5.3636363636,565.4291818143485,2.36,2,0.36,0.12,33629,14249.57627118644
1557,42481,"Jamestown, NY",43404,42.0969444,-79.2355556,4775.0,800.0,6.0,17.3333333333,752.3359999985532,3.6,4,-0.4,-0.08,18492,5136.666666666667
1559,42562,"Janesville, WI",69658,42.6827778,-89.01861109999999,1690.8333333332998,416.6666666667,4.5,2.9166666667000003,203.16916666898862,1.56,1,0.56,0.28,28127,18030.128205128203
1560,42616,"Jasper, AL",14156,33.8311111,-87.2775,3980.0,960.0,4.6,5.8,82.1048,1.76,2,-0.24,-0.08,5272,2995.4545454545455
1564,42724,"Jasper, TN",3281,35.0741667,-85.62611109999997,7438.888888888899,666.6666666666999,14.0,2.8888888889,9.4784444444809,0.66,1,-0.34,-0.17,1246,1887.8787878787878
1572,42859,"Jefferson, IA",3906,42.0152778,-94.3772222,500.0,200.0,3.0,5.0,19.53,1.3,2,-0.7,-0.233333333,1722,1324.6153846153845
1583,43210,"Johnson City, TN",120415,36.3133333,-82.3536111,2597.1538461539003,384.6153846154,7.7692307692,4.0,481.66,3.36,2,1.36,0.45333333299999995,51707,15388.988095238095
1584,43217,"Johnson Creek, WI",2702,43.07611110000001,-88.7741667,2050.0,400.0,6.0,6.833333333300001,18.4636666665766,0.02,1,-0.98,-0.49,1029,51450.0
1585,43227,"Johnson Lane, NV",5337,39.04805560000001,-119.7211111,20514.8125,156.25,33.5,6.166875,32.912611874999996,0.72,1,-0.28,-0.14,1995,2770.8333333333335
1586,43237,"Johnston City, IL",3621,37.82055560000001,-88.9275,3060.0,400.0,8.5714285714,5.2857142857,19.1395714285197,1.34,2,-0.66,-0.22,1454,1085.0746268656717
1589,43291,"Johnstown, PA",69014,40.3266667,-78.92222220000002,10485.0769230769,753.8461538462,17.1538461538,13.0769230769,902.4907692291765,1.74,2,-0.26,-0.08666666699999999,30111,17305.172413793105
1591,43345,"Jonesboro, AR",65419,35.8422222,-90.7041667,5313.3333333333,911.1111111111001,6.1111111111000005,3.4444444444,225.3321111082036,3.02,3,0.02,0.005,25805,8544.701986754966
1599,43561,"Juneau, AK",24537,58.3019444,-134.4197222,7754.166666666701,816.6666666666998,10.0833333333,6.416666666699999,157.44575000081787,1.48,1,0.48,0.24,9599,6485.810810810811
1601,43595,"Jupiter Farms, FL",10962,26.920329,-80.191764,85259.25,156.25,140.375,8.7425,95.835285,1.14,1,0.14,0.07,3436,3014.0350877192986
1603,43615,"Kahului, HI",55934,20.8947222,-156.47,114990.576923077,149.0384615385,193.88461538459998,3.4334615385,192.047237694459,14.26,23,-8.74,-0.36416666700000005,16442,1153.015427769986
1604,43642,"Kailua (Hawaii County)--Holualoa, HI",28850,19.6227778,-155.9522222,114990.576923077,149.0384615385,193.88461538459998,3.4334615385,99.05536538572501,6.08,9,-2.92,-0.292,11001,1809.375
1605,43669,"Kailua (Honolulu County)--Kaneohe, HI",113682,21.4180556,-157.8036111,114990.576923077,149.0384615385,193.88461538459998,3.4334615385,390.322774619757,8.16,9,-0.84,-0.084,35221,4316.299019607843
1606,43696,"Kalaheo, HI",14840,21.9286111,-159.53027780000005,114990.576923077,149.0384615385,193.88461538459998,3.4334615385,50.95256923134,2.22,3,-0.78,-0.195,5016,2259.459459459459
1608,43723,"Kalamazoo, MI",209703,42.2916667,-85.58722220000001,34342.8571428571,471.4285714286,76.4285714286,4.8571428571,1018.5574285624414,14.24,17,-2.76,-0.15333333300000002,84792,5954.494382022472
1609,43777,"Kalispell, MT",31785,48.1958333,-114.31194440000002,1116.6666666667,333.3333333333,3.6666666667,4.0,127.14,0.78,1,-0.22,-0.11,12964,16620.51282051282
1614,43885,"Kankakee, IL",81926,41.12,-87.86111109999999,140155.083333333,156.25,233.6666666667,3.1816666667,260.6612233360642,4.94,6,-1.06,-0.15142857099999998,29117,5894.12955465587
1615,43912,"Kansas City, MO--KS",1519417,39.0997222,-94.5783333,79200.0,1033.3333333333,85.0,5.1666666667,7850.321166717314,122.18,167,-44.82,-0.266785714,606689,4965.534457357996
1616,43939,"Kapaa, HI",19063,22.0783333,-159.3219444,114990.576923077,149.0384615385,193.88461538459998,3.4334615385,65.4520773084255,9.28,14,-4.72,-0.314666667,6516,702.1551724137931
1623,44155,"Kearney, MO",7368,39.3677778,-94.3619444,79200.0,1033.3333333333,85.0,5.1666666667,38.068000000245604,0.24,1,-0.76,-0.38,2827,11779.166666666668
1624,44182,"Kearney, NE",31287,40.6994444,-99.0811111,1687.5,300.0,6.0,18.0,563.1659999999999,2.26,2,0.26,0.08666666699999999,12153,5377.433628318585
1625,44209,"Keene, NH",22510,42.9336111,-72.27861109999998,2300.0,200.0,12.0,4.0,90.04,3.04,4,-0.96,-0.192,9079,2986.5131578947367
1633,44425,"Kennebunk, ME",8240,43.3838889,-70.5452778,2300.0,200.0,12.0,4.0,32.96,2.28,3,-0.72,-0.18,3767,1652.1929824561405
1635,44479,"Kennewick--Pasco, WA",210975,46.2397222,-119.0994444,7650.0,200.0,38.5,7.0,1476.825,8.16,9,-0.84,-0.084,75002,9191.421568627451
1636,44506,"Kenosha, WI--IL",124064,42.5847222,-87.8211111,37083.0625,156.25,60.8125,3.4378125,426.50876999999997,3.68,3,0.68,0.17,46623,12669.293478260868
1641,44641,"Kerrville, TX",28810,30.0472222,-99.14,2400.0,200.0,12.0,36.0,1037.1599999999999,1.0,1,0.0,0.0,12671,12671.0
1651,44911,"Kihei, HI",25819,20.785,-156.4655556,114990.576923077,149.0384615385,193.88461538459998,3.4334615385,88.64854346253149,5.1,6,-0.9,-0.12857142900000001,10658,2089.8039215686276
1654,44965,"Kill Devil Hills, NC",19095,35.31305560000001,-80.2611111,1350.0,300.0,5.0,7.0,133.665,0.96,1,-0.04,-0.02,8325,8671.875
1655,44992,"Killeen, TX",217630,31.116944399999994,-97.7275,5508.9285714286,642.8571428571,9.785714285700001,2.3571428571,512.9849999906729,4.54,2,2.54,0.846666667,69977,15413.436123348018
1657,45073,"King City, CA",14529,36.2127778,-121.125,7955.0,600.0,14.0,6.0,87.174,2.0,3,-1.0,-0.25,3302,1651.0
1663,45235,"Kingsport, TN--VA",106571,36.5483333,-82.5619444,8906.0666666667,400.0,23.4,3.4,362.34139999999996,3.44,4,-0.56,-0.11199999999999999,45301,13168.89534883721
1664,45262,"Kingston, NY",57442,41.9269444,-73.9977778,21228.888888888898,555.5555555556,41.8888888889,5.4444444444,312.7397777752248,10.78,14,-3.22,-0.214666667,23557,2185.2504638218925
1666,45316,"Kingsville, TX",26011,27.515555600000006,-97.8558333,10655.5384615385,846.1538461538,13.3846153846,3.8461538462,100.04230769350819,1.96,2,-0.04,-0.013333333000000001,9109,4647.448979591837
1672,45451,"Kissimmee, FL",314071,28.2916667,-81.40777779999998,9310.0,320.0,30.0,1.6,502.51360000000005,10.28,27,-16.72,-0.597142857,103945,10111.381322957199
1674,45505,"Klamath Falls--Altamont, OR",41434,42.2069444,-121.7361111,3151.0,300.0,10.5,4.0,165.736,1.46,1,0.46,0.23,16962,11617.808219178083
1678,45640,"Knoxville, TN",558696,35.960555600000006,-83.9208333,14222.5,533.3333333333001,28.6666666667,2.3333333333,1303.623999981377,61.98,78,-16.02,-0.20278481,233715,3770.8131655372704
1684,45775,"Kuna, ID",15234,43.4919444,-116.41916670000002,11628.571428571398,400.0,30.0,6.1428571429,93.5802857149386,0.62,1,-0.38,-0.19,5114,8248.387096774193
1688,45910,"La Crosse, WI--MN",100868,43.8013889,-91.2394444,18778.4615384615,553.8461538462001,34.3076923077,7.5384615385,760.389538465418,4.22,5,-0.78,-0.13,40832,9675.829383886257
1689,46153,"La Follette, TN",21055,36.3827778,-84.12,14222.5,533.3333333333001,28.6666666667,2.3333333333,49.128333332631506,1.46,2,-0.54,-0.18,8092,5542.465753424658
1696,45856,"Laconia, NH",18636,43.5277778,-71.4708333,2300.0,200.0,12.0,4.0,74.544,1.92,3,-1.08,-0.27,7923,4126.5625
1697,45937,"Lady Lake--The Villages, FL",112991,28.9333333,-81.9486111,1650.0,350.0,5.75,10.25,1158.15775,5.42,2,3.42,1.14,57489,10606.826568265682
1699,46126,"Lafayette--Louisville--Erie, CO",79407,40.0502778,-105.0494444,800.0,400.0,2.0,6.0,476.442,9.6,33,-23.4,-0.688235294,31460,3277.0833333333335
1701,46018,"Lafayette, IN",147725,40.4166667,-86.87527779999998,2375.0,300.0,8.5,4.5,664.7624999999999,9.42,7,2.42,0.3025,56793,6028.980891719745
1702,46045,"Lafayette, LA",252720,30.223888899999995,-92.0197222,17577.058823529398,870.5882352941002,20.1176470588,5.1176470588,1293.331764699936,5.96,3,2.96,0.74,98469,16521.644295302012
1705,46234,"LaGrange, GA",34879,33.036221999999995,-85.03224399999998,2750.0,500.0,6.25,7.5,261.5925,1.9,4,-2.1,-0.42,12452,6553.684210526316
1708,46396,"Lahaina, HI",21331,20.8783333,-156.6825,114990.576923077,149.0384615385,193.88461538459998,3.4334615385,73.2391680777435,8.56,12,-3.44,-0.264615385,7082,827.3364485981308
1709,46423,"Laie--Hauula, HI",15071,21.6105556,-157.9108333,114990.576923077,149.0384615385,193.88461538459998,3.4334615385,51.7456988467335,2.56,3,-0.44,-0.11,3011,1176.171875
1714,46531,"Lake Charles, LA",143440,30.2263889,-93.2172222,6838.333333333299,1000.0,7.25,4.3333333333,621.5733333285519,1.98,1,0.98,0.49,55768,28165.656565656565
1715,46558,"Lake City, FL",25623,30.1894444,-82.6394444,2045.0,540.0,4.6,5.8,148.6134,1.52,2,-0.48,-0.16,8245,5424.3421052631575
1716,46585,"Lake City, MN",5103,44.4494444,-92.2666667,1702.8571428572,600.0,3.1428571429,7.4285714286,37.9080000001458,0.76,1,-0.24,-0.12,2198,2892.1052631578946
1720,46666,"Lake Conroe Westshore, TX",20569,31.968599,-99.901813,3502.0833333333007,766.6666666666998,5.25,3.3333333333,68.5633333326477,3.6,1,2.6,1.3,8250,2291.6666666666665
1723,46693,"Lake Geneva, WI",14649,42.59166670000001,-88.4333333,2692.0,320.0,8.4,8.4,123.0516,1.46,1,0.46,0.23,6538,4478.082191780822
1724,46747,"Lake Havasu City, AZ",53427,34.4838889,-114.3216667,6163.6363636364,472.72727272730003,13.5454545455,6.7272727273,359.4180000014571,1.62,2,-0.38,-0.12666666699999998,23241,14346.296296296296
1730,46855,"Lake Los Angeles, CA",11808,34.0522222,-118.2427778,255338.125,156.25,417.2083333333,3.0004166667,35.4289200003936,2.46,4,-1.54,-0.308,3140,1276.4227642276423
1732,46882,"Lake Mills, WI",6581,43.08138889999999,-88.9116667,2050.0,400.0,6.0,6.833333333300001,44.970166666447305,0.66,1,-0.34,-0.17,2589,3922.7272727272725
1737,46963,"Lake of the Pines, CA",7926,39.039619,-121.05661299999998,72659.7083333333,156.25,119.5,3.6733333333,29.1148399997358,6.94,10,-3.06,-0.278181818,3018,434.87031700288185
1743,47017,"Lake Placid, NY",3581,44.2794444,-73.9802778,2478.5714285714002,457.1428571429,5.8571428571,7.7142857143,27.6248571429083,0.7,1,-0.3,-0.15,1766,2522.857142857143
1744,47044,"Lake Pocotopaug--East Hampton, CT",9450,41.7838889,-72.0552778,3830.0,466.6666666667,8.3333333333,4.0,37.8,1.26,1,0.26,0.13,3630,2880.9523809523807
1750,46828,"Lakeland, FL",262596,28.039166700000006,-81.95,1593.0,680.0,3.0,9.8,2573.4408000000003,7.16,5,2.16,0.36,95659,13360.195530726256
1759,47449,"Lanai City, HI",3066,20.8305556,-156.9222222,114990.576923077,149.0384615385,193.88461538459998,3.4334615385,10.526993077041,0.7,1,-0.3,-0.15,1070,1528.5714285714287
1760,47611,"Lancaster--Palmdale, CA",341219,34.57944439999999,-118.1155556,255338.125,156.25,417.2083333333,3.0004166667,1023.7991745947073,16.66,22,-5.34,-0.232173913,99413,5967.166866746698
1762,47503,"Lancaster, OH",42557,39.7136111,-82.5994444,42830.25,156.25,70.1875,3.75125,159.64194625000002,1.38,1,0.38,0.19,17672,12805.797101449276
1763,47530,"Lancaster, PA",402004,40.0377778,-76.3058333,19967.4166666667,466.6666666667,42.8333333333,9.9166666667,3986.5396666800666,14.4,13,1.4,0.1,156573,10873.125
1768,47719,"Lansing, MI",313532,42.7325,-84.5555556,10000.0,400.0,25.0,7.0,2194.7239999999997,31.78,38,-6.22,-0.159487179,125153,3938.1057268722466
1771,47854,"Laredo, TX",235730,27.5061111,-99.5072222,8518.75,1000.0,9.0,4.125,972.3862499999999,3.7,2,1.7,0.566666667,64266,17369.18918918919
1774,47935,"Las Cruces, NM",128600,32.3122222,-106.7777778,5355.5555555556,733.3333333333002,7.4444444444,4.3333333333,557.26666666238,2.3,1,1.3,0.65,49091,21343.913043478264
1775,47995,"Las Vegas--Henderson, NV",1886011,36.0397222,-114.9811111,26118.1428571429,585.7142857143,44.928571428599994,2.7142857143,5119.172714312657,85.34,56,29.34,0.514736842,686226,8041.082727911881
1777,48016,"Laughlin, NV",5949,35.1677778,-114.5722222,6163.6363636364,472.72727272730003,13.5454545455,6.7272727273,40.0205454547077,0.52,1,-0.48,-0.24,2907,5590.384615384615
1784,48232,"Lawrence, KS",88053,38.9716667,-95.235,2700.0,400.0,7.333333333300001,5.0,440.265,7.4,8,-0.6,-0.066666667,34670,4685.135135135135
1790,48394,"Lawton, OK",94457,34.608611100000005,-98.39,7400.0,533.3333333333001,14.333333333299999,19.3333333333,1826.168666663518,1.04,1,0.04,0.02,34273,32954.80769230769
1794,49177,"Le Sueur, MN",3763,44.4613889,-93.915,1388.3333333332998,466.6666666667,3.0,12.0,45.156,0.56,1,-0.44,-0.22,1665,2973.2142857142853
1796,48448,"Leadville, CO",5039,39.2508333,-106.29194440000002,1550.0,400.0,4.0,7.5,37.7925,0.72,1,-0.28,-0.14,2231,3098.6111111111113
1797,48475,"Leavenworth, KS",45283,39.31111110000001,-94.9222222,1066.6666666667,466.6666666667,3.0,12.0,543.396,1.6,1,0.6,0.3,15074,9421.25
1798,48485,"Leavenworth, WA",3282,47.5963889,-120.6602778,2668.75,825.0,3.0,3.375,11.07675,2.08,3,-0.92,-0.23,1484,713.4615384615385
1799,48728,"Lebanon--Hanover, NH--VT",25690,33.8333,35.8333,11299.875,156.25,18.8333333333,5.6225,144.442025,3.14,3,0.14,0.035,10216,3253.5031847133755
1803,48637,"Lebanon, OR",19744,44.53666670000001,-122.90583329999998,600.0,200.0,3.0,4.0,78.976,1.38,2,-0.62,-0.206666667,7575,5489.130434782609
1804,48664,"Lebanon, PA",77086,40.3408333,-76.4116667,4133.6666666667,466.6666666667,9.6666666667,7.333333333300001,565.2973333307639,2.68,3,-0.32,-0.08,29611,11048.880597014924
1805,48691,"Lebanon, TN",27653,36.2080556,-86.2911111,21600.0,500.0,43.9375,2.8125,77.7740625,1.36,7,-5.64,-0.705,10554,7760.294117647059
1807,48745,"Lee, MA",8049,42.3041667,-73.24861109999998,6766.666666666701,800.0,9.0,8.0,64.392,0.94,1,-0.06,-0.03,3376,3591.489361702128
1808,48826,"Lee's Summit, MO",85081,37.9119444,-90.7080556,3113.3333333333007,760.0,4.7333333333,6.6,561.5346,8.18,8,0.18,0.02,31082,3799.755501222494
1809,48799,"Leesburg--Eustis--Tavares, FL",131337,28.8038889,-81.7258333,1650.0,350.0,5.75,10.25,1346.2042499999998,11.16,13,-1.84,-0.131428571,57491,5151.52329749104
1816,49096,"Leominster--Fitchburg, MA",116960,42.5833333,-71.80277779999999,2300.0,200.0,12.0,4.0,467.84,4.72,4,0.72,0.14400000000000002,46230,9794.49152542373
1819,49231,"Lewes, DE",24129,38.77444439999999,-75.13972220000002,7344.0,320.0,22.8,5.4,130.2966,4.74,6,-1.26,-0.18,10904,2300.42194092827
1823,49339,"Lewiston, ME",59397,44.1002778,-70.2152778,2300.0,200.0,12.0,4.0,237.588,2.06,2,0.06,0.02,24762,12020.388349514562
1826,49594,"Lexington Park--California--Chesapeake Ranch Estates, MD",58875,38.3461111,-76.4180556,342597.875,156.25,556.5652173912999,11.014166666700001,648.4590625019625,4.56,3,1.56,0.39,21715,4762.061403508772
1827,49582,"Lexington-Fayette, KY",290263,38.040584,-84.503716,750.0,200.0,4.0,9.0,2612.3669999999997,8.92,5,3.92,0.653333333,120941,13558.40807174888
1829,49474,"Lexington, NE",10464,40.7808333,-99.7411111,1064.6666666667,466.6666666667,2.6666666667,9.0,94.176,0.74,1,-0.26,-0.13,3070,4148.648648648648
1831,49555,"Lexington, VA",8762,37.7838889,-79.4430556,1250.0,200.0,6.0,13.0,113.906,0.9,1,-0.1,-0.05,2265,2516.6666666666665
1838,49771,"Lihue, HI",13983,21.9811111,-159.3711111,114990.576923077,149.0384615385,193.88461538459998,3.4334615385,48.010092692845504,1.52,14,-12.48,-0.8320000000000001,4474,2943.4210526315787
1840,49852,"Lima, OH",72852,40.7425,-84.1052778,1913.3333333332998,733.3333333333002,3.3333333333,7.166666666699999,522.1060000024283,2.4,3,-0.6,-0.15,28208,11753.333333333334
1841,49960,"Lincoln City, OR",10526,44.9583333,-124.01666670000002,600.0,200.0,3.0,4.0,42.104,2.78,4,-1.22,-0.244,5023,1806.834532374101
1844,49933,"Lincoln, NE",258719,40.8,-96.6666667,1482.75,650.0,2.5,6.75,1746.35325,17.46,1,16.46,8.23,105310,6031.500572737686
1845,49987,"Lincolnton, NC",22686,35.47361110000001,-81.2547222,1053.8461538462,476.9230769231,2.5384615385,4.6153846154,104.7046153849644,1.0,1,0.0,0.0,9198,9198.0
1849,50095,"Lindsborg, KS",3405,38.5736111,-97.6741667,20320.6875,156.25,33.5,3.68875,12.56019375,0.24,2,-1.76,-0.586666667,1242,5175.0
1850,50122,"Lindstrom--Chisago City, MN",8492,45.37361110000001,-92.8897222,22930.0,200.0,114.6666666667,4.6666666667,39.62933333361641,0.84,1,-0.16,-0.08,3456,4114.285714285715
1858,50392,"Little Rock, AR",431388,36.2716667,-93.8661111,5100.0,1000.0,5.25,7.25,3127.5629999999996,12.86,14,-1.14,-0.076,172031,13377.216174183515
1865,50527,"Livermore, CA",81624,37.6819444,-121.7669444,114990.576923077,149.0384615385,193.88461538459998,3.4334615385,280.252864618524,3.76,2,1.76,0.586666667,29476,7839.3617021276605
1874,50797,"Lockport, NY",36024,43.17055560000001,-78.6905556,33521.1111111111,711.1111111111002,49.9444444444,5.2777777778,190.1266666674672,1.74,2,-0.26,-0.08666666699999999,14671,8431.6091954023
1876,50851,"Lodi, CA",68738,38.1302778,-121.2713889,72659.7083333333,156.25,119.5,3.6733333333,252.4975866643754,4.92,7,-2.08,-0.26,24092,4896.747967479675
1879,50932,"Logan, OH",8080,39.54,-82.4072222,2000.0,200.0,10.0,12.0,96.96000000000001,0.02,1,-0.98,-0.49,3527,176350.0
1880,50959,"Logan, UT",94983,41.73555560000001,-111.8336111,683.3333333333001,200.0,3.3333333333,17.6666666667,1678.033000003166,2.08,2,0.08,0.026666667,29954,14400.961538461537
1884,51040,"Lompoc, CA",51509,34.639166700000004,-120.4569444,44720.181818181794,945.4545454545,47.818181818199996,8.0,412.072,2.08,1,1.08,0.54,16612,7986.538461538461
1885,51131,"London--Corbin, KY",37367,36.9486111,-84.0969444,1200.0,400.0,3.0,4.0,149.468,1.6,2,-0.4,-0.133333333,15351,9594.375
1887,51142,"Long Beach, MD",6476,38.4608333,-76.4691667,342597.875,156.25,556.5652173912999,11.014166666700001,71.32774333354921,1.24,2,-0.76,-0.253333333,1995,1608.8709677419356
1888,51202,"Long Neck, DE",14150,38.62,-75.1511111,7344.0,320.0,22.8,5.4,76.41000000000001,1.84,3,-1.16,-0.29,6414,3485.869565217391
1890,51175,"Longmont, CO",90897,40.1672222,-105.1013889,800.0,400.0,2.0,6.0,545.3820000000001,6.52,7,-0.48,-0.06,35293,5413.0368098159515
1891,51256,"Longview, TX",98884,32.50055560000001,-94.7402778,5990.625,1000.0,6.625,3.75,370.815,2.46,2,0.46,0.15333333300000002,36605,14880.081300813008
1892,51283,"Longview, WA--OR",63952,46.1383333,-122.93694440000002,46783.5,1100.0,46.7,2.1,134.2992,4.0,5,-1.0,-0.166666667,25253,6313.25
1896,51364,"Lorain--Elyria, OH",180956,41.3683333,-82.1077778,110788.5625,156.25,182.25,6.158125,1114.3496675,7.2,5,2.2,0.36666666700000006,72231,10032.083333333334
1898,51445,"Los Angeles--Long Beach--Anaheim, CA",12150996,33.8352778,-117.9136111,29980.0,560.0,79.2,2.2,26732.1912,647.82,835,-187.18,-0.223899522,3973143,6133.097156617579
1908,51755,"Louisville/Jefferson County, KY--IN",972546,38.252665,-85.75845600000002,1127.1428571428999,457.1428571429,2.7142857143,7.0,6807.822,27.28,12,15.28,1.175384615,392405,14384.347507331378
1911,51823,"Lowell, MI",6803,42.9336111,-85.3419444,1864.2857142857001,314.2857142857,6.7142857143,9.142857142899999,62.19885714314869,0.3,2,-1.7,-0.566666667,2596,8653.333333333334
1913,51877,"Lubbock, TX",237356,33.5777778,-101.8547222,8422.6666666667,600.0,16.0833333333,6.166666666699999,1463.695333341245,8.16,3,5.16,1.29,90065,11037.377450980392
1917,51985,"Lufkin, TX",44927,31.338055600000004,-94.72888890000002,2000.0,836.3636363636,2.4545454545,4.0,179.708,1.9,2,-0.1,-0.033333333,16236,8545.263157894737
1920,52066,"Lumberton, NC",29739,34.618055600000005,-79.0088889,1983.3333333332998,466.6666666667,5.5,3.8333333333,113.9994999990087,1.8,2,-0.2,-0.066666667,10513,5840.555555555556
1924,52201,"Lynchburg, VA",116636,37.4136111,-79.1425,4521.6666666667,400.0,12.4,3.9333333333,458.7682666627788,5.3,4,1.3,0.26,45352,8556.981132075472
1925,52228,"Lynden, WA",14533,48.9466667,-122.4508333,7754.166666666701,816.6666666666998,10.0833333333,6.416666666699999,93.25341666715109,0.72,4,-3.28,-0.6559999999999999,5445,7562.5
1932,52795,"Macomb, IL",19945,40.4591667,-90.6716667,2187.5,300.0,7.25,25.5,508.5975,1.9,1,0.9,0.45,7184,3781.0526315789475
1933,52822,"Macon, GA",137570,32.8405556,-83.6325,5066.6666666667,555.5555555556,9.8888888889,5.7777777778,794.848888891946,4.66,6,-1.34,-0.19142857100000002,50657,10870.600858369098
1936,52984,"Madera, CA",78413,36.9613889,-120.0597222,8432.0,800.0,10.833333333299999,8.0,627.304,1.92,2,-0.08,-0.026666667,20415,10632.8125
1942,53200,"Madison, WI",401661,43.0730556,-89.4011111,6718.0,240.0,29.4,5.2,2088.6372,39.58,42,-2.42,-0.05627907,173176,4375.34108135422
1947,53308,"Madras, OR",8010,44.6336111,-121.12833329999998,46783.5,1100.0,46.7,2.1,16.821,0.74,1,-0.26,-0.13,3007,4063.5135135135138
1950,53372,"Magnolia, TX",3195,30.2091667,-95.7505556,2275.0,300.0,8.25,7.25,23.16375,0.64,1,-0.36,-0.18,1281,2001.5625
1952,53443,"Maiden, NC",3572,35.5755556,-81.21194440000002,1053.8461538462,476.9230769231,2.5384615385,4.6153846154,16.4861538462088,0.64,1,-0.36,-0.18,1306,2040.625
1961,53686,"Manchester, IA",5032,42.4841667,-91.4552778,10918.4615384615,938.4615384614999,12.2307692308,5.4615384615,27.482461538268,0.72,1,-0.28,-0.14,2106,2925.0
1964,53740,"Manchester, NH",158377,42.9955556,-71.45527779999998,2300.0,200.0,12.0,4.0,633.508,10.78,10,0.78,0.070909091,62629,5809.74025974026
1965,53767,"Manchester, TN",11379,35.4816667,-86.0886111,1023.75,616.6666666666999,1.9166666667,4.4166666667,50.2572500003793,2.42,3,-0.58,-0.145,4425,1828.5123966942149
1966,53794,"Mandeville--Covington, LA",88925,30.4752778,-90.1008333,2221.7857142857,528.5714285714,4.7142857143,3.7857142857,336.6446428558725,8.5,2,6.5,2.166666667,33855,3982.9411764705883
1968,53848,"Manhattan, KS",54622,39.1836111,-96.5713889,1126.0,466.6666666667,2.6666666667,6.0,327.73199999999997,3.88,5,-1.12,-0.18666666699999998,21049,5425.0
1973,53983,"Mankato, MN",57584,44.1636111,-93.9991667,1388.3333333332998,466.6666666667,3.0,12.0,691.008,2.84,4,-1.16,-0.23199999999999998,22602,7958.450704225353
1978,54091,"Mansfield, OH",75250,40.7583333,-82.5155556,4532.0,240.0,19.8,5.8,436.45,2.52,3,-0.48,-0.12,30042,11921.42857142857
1980,54145,"Manteca, CA",83578,37.7975,-121.215,10606.25,500.0,23.5,5.0,417.89,3.14,2,1.14,0.38,27747,8836.624203821655
1984,54280,"Maquoketa, IA",6159,42.0688889,-90.6655556,4579.4117647059,800.0,6.2352941176,6.7647058824,41.6638235297016,1.32,2,-0.68,-0.226666667,2697,2043.181818181818
1985,54295,"Marana West, AZ",5456,32.436381,-111.222442,23490.7619047619,142.8571428571,40.5714285714,4.4504761905,24.281798095368,1.42,2,-0.58,-0.193333333,1620,1140.8450704225352
1986,54307,"Marathon, FL",8965,24.7133333,-81.0905556,666.6666666666999,200.0,3.6666666667,10.0,89.65,0.24,1,-0.76,-0.38,3471,14462.5
1990,54442,"Marianna, FL",6086,30.7741667,-85.22694440000002,17884.0,500.0,36.125,17.0,103.462,1.36,2,-0.64,-0.213333333,2588,1902.941176470588
1992,54477,"Maricopa, AZ",42337,33.0580556,-112.04694440000002,95000.0,300.0,332.5,8.5,359.8645,1.38,1,0.38,0.19,13922,10088.40579710145
1995,54739,"Marion Oaks, FL",14160,29.0083333,-82.1833333,6266.666666666701,633.3333333333001,10.6666666667,3.6666666667,51.920000000472,0.7,1,-0.3,-0.15,5173,7390.000000000001
2001,54712,"Marion, VA",7960,36.8347222,-81.515,1563.0,430.76923076919996,3.8461538462,3.7692307692,30.003076922832,0.76,1,-0.24,-0.12,3175,4177.631578947368
2009,54955,"Marshall, MI",7683,42.2722222,-84.9633333,34342.8571428571,471.4285714286,76.4285714286,4.8571428571,37.3174285710993,0.5,2,-1.5,-0.5,3409,6818.0
2013,55063,"Marshall, WI",3834,43.1683333,-89.0666667,2050.0,400.0,6.0,6.833333333300001,26.198999999872203,0.6,1,-0.4,-0.2,1450,2416.666666666667
2016,55144,"Marshfield, WI",19421,44.6688889,-90.1716667,4675.625,950.0,5.125,8.125,157.795625,1.06,1,0.06,0.03,8617,8129.245283018868
2017,55171,"Martin, TN",11397,36.3433333,-88.85027779999999,1425.0,350.0,4.25,12.0,136.764,2.0,3,-1.0,-0.25,4168,2084.0
2020,55252,"Martinsville, VA",35091,36.6913889,-79.8727778,2812.5,600.0,5.0,7.0,245.637,1.52,2,-0.48,-0.16,14938,9827.631578947368
2023,55333,"Marysville, WA",145140,48.0519444,-122.1758333,7754.166666666701,816.6666666666998,10.0833333333,6.416666666699999,931.3150000048378,10.1,5,5.1,0.85,52774,5225.148514851486
2024,55360,"Maryville, MO",13220,40.3461111,-94.8722222,700.0,300.0,2.5,3.5,46.27,0.58,2,-1.42,-0.47333333299999997,4907,8460.344827586208
2026,55414,"Mason City, IA",27115,43.153611100000006,-93.2008333,500.0,200.0,3.0,5.0,135.575,1.3,2,-0.7,-0.233333333,12600,9692.307692307691
2031,55576,"Mattoon, IL",18978,39.48305560000001,-88.3727778,2270.0,360.0,7.2,11.0,208.758,1.5,2,-0.5,-0.166666667,8156,5437.333333333333
2032,55603,"Mauldin--Simpsonville, SC",120577,34.7369444,-82.2544444,1800.0,800.0,2.5,7.0,844.039,15.3,19,-3.7,-0.185,45385,2966.3398692810456
2041,52363,"McAlester, OK",19501,34.9333333,-95.7694444,1575.0,250.0,6.5,8.75,170.63375000000002,1.56,2,-0.44,-0.146666667,7667,4914.74358974359
2042,52390,"McAllen, TX",728825,26.203055600000006,-98.2297222,10655.5384615385,846.1538461538,13.3846153846,3.8461538462,2803.1730769567152,11.8,3,8.8,2.2,204650,17343.22033898305
2050,52687,"McKinney, TX",170030,33.1975,-96.615,78975.0,145.8333333333,136.9444444444,2.5005555556,425.16946111866804,9.92,8,1.92,0.213333333,58853,5932.762096774193
2052,52741,"McMinnville, OR",38970,45.2102778,-123.1975,600.0,200.0,3.0,4.0,155.88,4.26,5,-0.74,-0.123333333,13577,3187.0892018779346
2058,55981,"Medford, OR",154081,42.3266667,-122.87444440000002,3151.0,300.0,10.5,4.0,616.324,12.34,15,-2.66,-0.16625,62949,5101.215559157213
2064,56116,"Memphis, TN--MS--AR",1060061,35.14944439999999,-90.04888890000002,24436.5416666667,156.25,40.25,2.95375,3131.15517875,33.66,26,7.66,0.283703704,392467,11659.744503862152
2069,56251,"Merced, CA",136969,37.3022222,-120.48194440000002,7955.0,600.0,14.0,6.0,821.814,4.46,5,-0.54,-0.09,41545,9315.022421524664
2072,56359,"Merrill, WI",10282,45.18055560000001,-89.6833333,1852.1428571429,1000.0,2.4285714286,8.4285714286,86.66257142886519,0.68,1,-0.32,-0.16,4595,6757.35294117647
2073,56386,"Mescalero Park, TX",3460,30.586225,-96.307334,5600.0,342.8571428571,18.571428571400002,7.5714285714,26.197142857044,1.34,2,-0.66,-0.22,1241,926.1194029850745
2081,56602,"Miami, FL",5502379,25.7738889,-80.1938889,76548.0,156.25,126.875,3.52625,19402.763948750002,216.06,149,67.06,0.44706666700000003,1999921,9256.322317874665
2083,56656,"Michigan City--La Porte, IN--MI",66025,43.3504,-84.5603,2040.0,720.0,3.0,7.0,462.17500000000007,1.3,1,0.3,0.15,27013,20779.23076923077
2085,56737,"Middlebury, VT",5350,44.0152778,-73.1677778,2478.5714285714002,457.1428571429,5.8571428571,7.7142857143,41.271428571505,2.34,3,-0.66,-0.165,1510,645.2991452991454
2091,56899,"Middletown, NY",58381,41.4458333,-74.4233333,300105.0,156.25,494.375,9.6025,560.6035525,3.14,3,0.14,0.035,20442,6510.1910828025475
2092,56926,"Middletown, OH",97503,39.515,-84.3983333,44208.3333333333,1111.1111111111,42.222222222199996,4.3333333333,422.5129999967499,4.1,5,-0.9,-0.15,38043,9278.78048780488
2095,57007,"Midland, TX",117807,31.9972222,-102.0775,1611.4285714285998,342.8571428571,4.8571428571,11.142857142899999,1312.7065714336202,4.44,4,0.44,0.08800000000000001,43632,9827.027027027027
2105,57223,"Milledgeville, GA",29808,33.08,-83.23222220000002,1125.0,300.0,4.0,7.0,208.656,2.6,2,0.6,0.2,10753,4135.7692307692305
2110,57358,"Millsboro, DE",9395,38.5913889,-75.29166670000002,7344.0,320.0,22.8,5.4,50.733000000000004,0.7,1,-0.3,-0.15,3560,5085.714285714286
2113,57439,"Milton--Lewisburg, PA",30806,40.9644444,-76.88472220000001,4037.5,1000.0,4.0,10.0,308.06,1.38,1,0.38,0.19,11219,8129.710144927537
2116,57466,"Milwaukee, WI",1376476,43.0388889,-87.90638890000002,37083.0625,156.25,60.8125,3.4378125,4732.06639875,62.74,42,20.74,0.482325581,550178,8769.174370417597
2122,57628,"Minneapolis--St. Paul, MN--WI",2650890,44.938911,-93.117755,22930.0,200.0,114.6666666667,4.6666666667,12370.820000088363,193.62,147,46.62,0.315,1058354,5466.139861584547
2125,57709,"Mission Viejo--Lake Forest--San Clemente, CA",583681,33.4269444,-117.6111111,62375.0,300.0,212.0,7.5,4377.6075,38.56,34,4.56,0.130285714,218414,5664.263485477178
2126,57736,"Missoula, MT",82157,46.8722222,-113.9930556,3025.0,266.6666666667,11.333333333299999,4.6666666667,383.3993333360719,1.84,1,0.84,0.42,35498,19292.391304347824
2133,57925,"Mobile, AL",326183,30.6941667,-88.0430556,15865.5555555556,933.3333333333001,17.888888888900002,5.2222222222,1703.4001111038626,6.34,5,1.34,0.223333333,125467,19789.7476340694
2136,58006,"Modesto, CA",358172,37.6391667,-120.9958333,10606.25,500.0,23.5,5.0,1790.8600000000001,10.9,8,2.9,0.322222222,116486,10686.788990825688
2141,58168,"Monessen--California, PA",66086,40.0655556,-79.8919444,115932.41176470599,905.8823529412,135.4705882353,7.1176470588,470.3768235278568,2.04,2,0.04,0.013333333000000001,27367,13415.196078431372
2143,58249,"Monmouth--Independence, OR",18167,44.8513889,-123.1855556,600.0,200.0,3.0,4.0,72.668,2.98,3,-0.02,-0.005,6337,2126.510067114094
2145,58303,"Monroe, GA",15854,33.7947222,-83.7133333,1000.0,200.0,5.0,4.0,63.416,0.78,1,-0.22,-0.11,5851,7501.282051282051
2146,58330,"Monroe, LA",116533,32.5091667,-92.1191667,4438.727272727299,854.5454545455,5.2727272727,3.7272727273,434.3502727304509,2.52,2,0.52,0.173333333,44268,17566.666666666668
2147,58357,"Monroe, MI",51240,41.9163889,-83.3977778,4866.6666666667,400.0,13.0,10.0,512.4,2.44,3,-0.56,-0.14,20893,8562.704918032787
2151,58420,"Montauk, NY",2719,41.0358333,-71.955,3830.0,466.6666666667,8.3333333333,4.0,10.876,0.98,1,-0.02,-0.01,1364,1391.8367346938776
2158,58600,"Montgomery, AL",263907,32.3666667,-86.3,12192.0,914.2857142857001,13.4285714286,4.4285714286,1168.7310000075402,10.04,7,3.04,0.38,99340,9894.422310756972
2162,58870,"Monticello--Big Lake, MN",25536,45.3325,-93.7458333,4944.4444444445,422.2222222222,12.222222222200001,6.1111111111000005,156.0533333330496,0.7,1,-0.3,-0.15,9237,13195.714285714286
2167,58762,"Monticello, IN",8634,40.7452778,-86.76472220000002,2375.0,300.0,8.5,4.5,38.853,0.8,1,-0.2,-0.1,3552,4440.0
2171,58951,"Montrose, CO",22706,38.4783333,-107.87555559999998,2750.0,775.0,3.625,3.375,76.63275,0.32,1,-0.68,-0.34,9404,29387.5
2173,58972,"Moodus, CT",2701,41.5027778,-72.4505556,3830.0,466.6666666667,8.3333333333,4.0,10.804,0.66,1,-0.34,-0.17,945,1431.8181818181818
2184,59275,"Morgantown, WV",70350,39.6294444,-79.95611109999999,4407.75,375.0,12.25,7.75,545.2125,4.2,3,1.2,0.3,26748,6368.571428571428
2189,59410,"Morristown, TN",59036,36.21388889999999,-83.295,1675.625,375.0,4.5,4.125,243.5235,1.88,2,-0.12,-0.04,22552,11995.744680851065
2190,59437,"Morro Bay--Los Osos, CA",26772,35.31111110000001,-120.8313889,6351.75,700.0,10.0,7.75,207.48299999999998,6.76,8,-1.24,-0.13777777800000002,12354,1827.5147928994083
2194,59518,"Moses Lake, WA",32978,47.1302778,-119.27694440000002,7650.0,200.0,38.5,7.0,230.846,1.54,1,0.54,0.27,11926,7744.155844155844
2198,59815,"Mount Airy, NC--VA",19457,36.4991667,-80.6075,35100.0,766.6666666666998,54.3333333333,3.8333333333,74.58516666601811,1.62,2,-0.38,-0.12666666699999998,8495,5243.827160493827
2203,59923,"Mount Hood Village, OR",3638,45.3555556,-121.97944440000002,46783.5,1100.0,46.7,2.1,7.6398,3.22,4,-0.78,-0.156,1575,489.1304347826087
2204,59950,"Mount Horeb, WI",6997,43.0086111,-89.7383333,6718.0,240.0,29.4,5.2,36.3844,0.96,1,-0.04,-0.02,2803,2919.791666666667
2210,60112,"Mount Pleasant, MI",37447,43.5977778,-84.7675,4046.6666666666997,466.6666666667,11.0,14.666666666700001,549.222666667915,2.54,3,-0.46,-0.115,12485,4915.354330708661
2211,60139,"Mount Pleasant, TN",3507,35.5341667,-87.2069444,2712.5,700.0,4.5,14.75,51.72825,0.82,1,-0.18,-0.09,1382,1685.3658536585367
2226,60490,"Mount Vernon, WA",62966,48.4213889,-122.3327778,7754.166666666701,816.6666666666998,10.0833333333,6.416666666699999,404.03183333543217,4.72,6,-1.28,-0.182857143,23050,4883.474576271186
2239,60652,"Muncy, PA",9495,41.2055556,-76.7858333,7083.333333333299,866.6666666666998,8.8333333333,8.0,75.96,1.44,2,-0.56,-0.18666666699999998,3167,2199.3055555555557
2242,60733,"Murfreesboro, TN",133228,35.84555560000001,-86.39027779999998,21600.0,500.0,43.9375,2.8125,374.70375,13.56,18,-4.44,-0.233684211,51143,3771.607669616519
2244,60787,"Murray, KY",19072,36.6102778,-88.3147222,1706.25,300.0,5.5,11.5,219.328,0.82,1,-0.18,-0.09,7398,9021.951219512195
2245,60799,"Murrieta--Temecula--Menifee, CA",441546,33.7283333,-117.14555559999998,29980.0,560.0,79.2,2.2,971.4012,16.12,13,3.12,0.222857143,137388,8522.828784119107
2247,60841,"Muskegon, MI",161280,43.2341667,-86.2483333,5385.7142857143,900.0,6.7142857143,4.1428571429000005,668.1600000069121,5.34,9,-3.66,-0.366,63137,11823.408239700375
2248,60868,"Muskogee, OK",42052,35.7477778,-95.3694444,1575.0,250.0,6.5,8.75,367.955,1.64,2,-0.36,-0.12,16417,10010.365853658537
2249,60895,"Myrtle Beach--Socastee, SC--NC",215304,35.759573,-79.0193,29750.0,300.0,100.5,7.0,1507.128,10.4,12,-1.6,-0.123076923,95188,9152.692307692307
2252,60976,"Nampa, ID",151499,43.5408333,-116.5625,11628.571428571398,400.0,30.0,6.1428571429,930.636714292207,2.32,3,-0.68,-0.17,50888,21934.482758620692
2253,61003,"Nantucket, MA",8250,41.2833333,-70.1,19200.0,500.0,42.25,3.25,26.8125,2.38,3,-0.62,-0.155,3142,1320.1680672268908
2255,61057,"Napa, CA",83913,38.2972222,-122.2844444,114990.576923077,149.0384615385,193.88461538459998,3.4334615385,288.1120580801505,11.94,16,-4.06,-0.23882352899999998,30550,2558.6264656616418
2259,61165,"Nashua, NH--MA",226400,42.7652778,-71.4680556,2300.0,200.0,12.0,4.0,905.6,11.1,10,1.1,0.1,88067,7933.9639639639645
2260,61273,"Nashville-Davidson, TN",969587,36.2775,-85.105,1860.0,840.0,2.6,3.6,3490.5132,45.0,130,-85.0,-0.648854962,382698,8504.4
2268,61408,"Nebraska City, NE",7066,40.6766667,-95.8588889,900.0,200.0,5.0,6.0,42.396,1.52,3,-1.48,-0.37,2952,1942.1052631578948
2270,61462,"Needville, TX",2844,29.3991667,-95.8375,1691.6666666667002,444.4444444444,4.1111111111000005,10.222222222200001,29.0719999999368,0.64,1,-0.36,-0.18,1076,1681.25
2280,61786,"New Bedford, MA",149443,42.49055560000001,-71.2766667,3750.0,600.0,6.0,3.0,448.32900000000006,6.8,2,4.8,1.6,58791,8645.735294117647
2281,61840,"New Bern, NC",50503,35.1083333,-77.0444444,4021.090909090901,690.9090909091002,6.0909090909,5.3636363636,270.87972727089084,1.34,2,-0.66,-0.22,20483,15285.820895522387
2285,62110,"New Castle, CO",5449,39.5727778,-107.5358333,1550.0,400.0,4.0,7.5,40.8675,1.44,2,-0.56,-0.18666666699999998,1620,1125.0
2292,62407,"New Haven, CT",562839,41.3080556,-72.9286111,11742.5,200.0,59.0,8.25,4643.42175,41.74,40,1.74,0.042439024000000006,215905,5172.616195495927
2296,62515,"New London, WI",7643,43.0477778,-89.0127778,2050.0,400.0,6.0,6.833333333300001,52.227166666411904,0.32,1,-0.68,-0.34,3230,10093.75
2299,62677,"New Orleans, LA",899703,29.9544444,-90.075,20000.0,200.0,100.0,7.0,6297.921,19.54,16,3.54,0.208235294,360290,18438.587512794267
2300,62731,"New Philadelphia--Dover, OH",46366,40.5205556,-81.4741667,2375.0,300.0,8.5,4.0,185.464,1.5,2,-0.5,-0.166666667,19071,12714.0
2301,62947,"New Prague, MN",7850,44.5433333,-93.5758333,94235.5,156.25,158.125,4.489375,35.24159375,0.8,1,-0.2,-0.1,2898,3622.5
2308,63217,"New York--Newark, NY--NJ--CT",18351295,43.0466667,-77.0955556,35908.3333333333,733.3333333333002,51.0,5.833333333300001,107049.22083272162,491.7,402,89.7,0.222580645,6646283,13516.947325605044
2312,61813,"Newberg, OR",27001,45.3002778,-122.9719444,600.0,200.0,3.0,4.0,108.004,3.32,5,-1.68,-0.28,9227,2779.2168674698796
2319,62758,"Newport, AR",6288,35.6047222,-91.2816667,1350.0,500.0,3.0,4.5,28.296,0.7,1,-0.3,-0.15,2497,3567.1428571428573
2321,62839,"Newport, OR",11188,44.6369444,-124.0522222,600.0,200.0,3.0,4.0,44.752,1.6,2,-0.4,-0.133333333,5119,3199.375
2328,63109,"Newton, KS",20654,38.0466667,-97.3447222,20320.6875,156.25,33.5,3.68875,76.1874425,1.16,1,0.16,0.08,8232,7096.551724137931
2330,63137,"Newton, NJ",11941,41.0580556,-74.7530556,300105.0,156.25,494.375,9.6025,114.66345249999999,1.08,1,0.08,0.04,4819,4462.0370370370365
