UANUM,UANAME,4 Week Rate,Latitude,Longitude
37,"Abbeville, LA",16190.0,29.974444399999996,-92.13416670000001
64,"Abbeville, SC",2625.0,34.17805560000001,-82.3791667
91,"Abbotsford, WI",1852.1428571429,44.946388899999995,-90.3158333
199,"Aberdeen--Bel Air South--Bel Air North, MD",122361.3125,39.519346999999996,-76.185598
118,"Aberdeen, MS",4601.5,33.825,-88.54361109999999
145,"Aberdeen, SD",3082.5,45.464722200000004,-98.48611109999999
172,"Aberdeen, WA",3850.0,46.97555560000001,-123.81444440000001
226,"Abernathy, TX",8853.0,33.832222200000004,-101.8425
253,"Abilene, KS",1126.0,38.9172222,-97.2136111
280,"Abilene, TX",3325.0,32.4486111,-99.7327778
334,"Abingdon, IL",525.0,40.804444399999994,-90.4016667
388,"Ada, OH",1625.0,40.7694444,-83.8227778
415,"Ada, OK",1460.0,34.77444439999999,-96.6780556
450,"Adams, NY",500.0,43.8091667,-76.02444440000001
469,"Adel, GA",7500.0,31.136944399999997,-83.42361109999999
496,"Adel, IA",36386.5625,41.6144444,-94.0172222
550,"Adjuntas, PR",3000.0,18.164722199999996,-66.7225
577,"Adrian, MI",2550.0,41.8975,-84.0372222
631,"Aguadilla--Isabela--San Sebastiï¿½n, PR",4200.0,18.325889,-66.97681899999999
658,"Ahoskie, NC",3112.5,36.286666700000005,-76.985
676,"Air Force Academy, CO",12263.125,38.998357,-104.86175300000001
712,"Ajo, AZ",123595.375,32.3716667,-112.86
739,"Akron, NY",2983.3333333333007,43.0208333,-78.4955556
766,"Akron, OH",3391.5,41.08138889999999,-81.5191667
793,"Alachua, FL",11296.0625,29.751388899999995,-82.425
820,"Alamogordo, NM",3333.3333333333007,32.89944439999999,-105.9597222
847,"Alamosa, CO",1550.0,37.46944439999999,-105.86944440000002
970,"Albany--Schenectady, NY",28526.0,42.8141667,-73.94
901,"Albany, GA",7500.0,31.578333299999997,-84.1558333
921,"Albany, MN",4690.0,45.63,-94.5697222
955,"Albany, OR",2100.0,44.6366667,-123.10472220000001
982,"Albemarle, NC",1350.0,35.35,-80.2002778
1009,"Albert Lea, MN",1388.3333333332998,43.648055600000006,-93.3680556
1036,"Albertville, AL",1600.0,34.2675,-86.2088889
1063,"Albia, IA",3322.7272727273,41.0266667,-92.8055556
1090,"Albion, MI",2466.6666666667,42.243055600000005,-84.7530556
1117,"Albion, NY",2983.3333333333007,43.2463889,-78.1938889
1144,"Albion, PA",6683.333333333299,41.890555600000006,-80.3666667
1171,"Albuquerque, NM",14180.0,35.084444399999995,-106.65055559999999
1198,"Alderson, WV",4766.6666666667,37.7258333,-80.6422222
1225,"Aledo, IL",33565.3333333333,41.199722200000004,-90.7491667
1232,"Aledo, TX",3150.0,32.6958333,-97.60194440000001
1252,"Alexander City, AL",7073.333333333299,32.9438889,-85.95388890000001
1279,"Alexandria, LA",6758.9473684211,31.311111100000005,-92.445
1306,"Alexandria, MN",1459.0,45.8852778,-95.3772222
1333,"Alfred, NY",2983.3333333333007,42.2541667,-77.7908333
1360,"Algoma, WI",675.0,44.6088889,-87.4325
1387,"Algona, IA",500.0,43.07,-94.2327778
1414,"Alice, TX",10394.4285714286,27.751944399999996,-98.0694444
1441,"Allegan, MI",3020.0,42.529166700000005,-85.8552778
1468,"Allendale, SC",65191.6666666667,33.0077778,-81.3086111
1495,"Allentown, PA--NJ",3360.0,40.6083333,-75.4905556
1522,"Alliance, NE",3375.0,42.1016667,-102.8716667
1549,"Alliance, OH",3391.5,40.9152778,-81.10611109999999
1630,"Alma--St. Louis, MI",2040.0,43.398006,-84.668091
1603,"Alma, GA",1875.0,31.539166700000003,-82.4625
1657,"Almont, MI",52958.3333333333,42.92055560000001,-83.045
1684,"Alpena, MI",3880.0,45.0616667,-83.4327778
1711,"Alpine, TX",1733.3333333332998,30.358333299999998,-103.6605556
1738,"Altavista, VA",2500.0,37.1116667,-79.2858333
1765,"Alton, IL--MO",6300.0,38.890555600000006,-90.1841667
1792,"Altoona, PA",12340.416666666699,40.5186111,-78.395
1819,"Alturas, CA",3151.0,41.4872222,-120.5413889
1846,"Altus, OK",600.0,34.6380556,-99.33361109999998
1873,"Alva, OK",600.0,36.805,-98.6661111
1900,"Alvarado, TX",3150.0,32.406388899999996,-97.2113889
1927,"Amarillo, TX",1050.0,35.2219444,-101.8308333
1981,"American Falls, ID",2660.0,42.78611110000001,-112.85361110000001
2008,"Americus, GA",4840.0,32.0722222,-84.2327778
2035,"Amery, WI",1702.8571428572,45.3069444,-92.3619444
2062,"Ames, IA",500.0,42.0347222,-93.61972220000001
2116,"Amite City, LA",2185.6666666667,30.726575,-90.508981
2143,"Amory, MS",7556.25,33.9841667,-88.4880556
2170,"Amsterdam, NY",28526.0,42.9386111,-74.18861109999999
2197,"Anaconda-Deer Lodge County, MT",913.0,46.1263,-112.94783600000001
2224,"Anacortes, WA",2750.0,48.5127778,-122.6113889
2251,"Anadarko, OK",27552.3076923077,35.0725,-98.2433333
2278,"Anamosa, IA",9709.3333333333,42.1083333,-91.285
2332,"Anchorage Northeast, AK",3850.0,61.218056000000004,-149.90027800000001
2305,"Anchorage, AK",3850.0,61.2180556,-149.90027780000003
2359,"Andalusia, AL",1347.7142857142999,31.308333299999997,-86.4833333
2386,"Anderson, IN",633.3333333333001,40.105277799999996,-85.6802778
2413,"Anderson, SC",1800.0,34.5033333,-82.6502778
2440,"Andrews, SC",966.6666666666999,33.451111100000006,-79.56111109999999
2467,"Andrews, TX",2800.0,32.318611100000005,-102.5452778
2494,"Angels, CA",10606.25,38.067783,-120.53853000000001
2548,"Angola, IN",1500.0,41.6347222,-84.9994444
2602,"Ann Arbor, MI",4500.0,42.2708333,-83.7263889
2575,"Anna, IL",3060.0,37.4602778,-89.2469444
2581,"Anna, TX",78975.0,33.3488889,-96.5483333
2590,"Annandale, MN",4690.0,45.2627778,-94.1241667
2629,"Anniston--Oxford, AL",4691.4545454546005,33.6141667,-85.835
2656,"Antigo, WI",5584.6428571429005,45.1402778,-89.15222220000001
2683,"Antioch, CA",72659.7083333333,38.005,-121.8047222
2710,"Apalachicola, FL",9471.6428571429,29.725555600000003,-84.9833333
2773,"Apple Valley, OH",15860.0,40.86555560000001,-80.9483333
2764,"Appleton, WI",4956.25,44.2619444,-88.4152778
2791,"Arab, AL",1600.0,34.3180556,-86.4958333
2825,"Arbuckle, CA",3712.3333333333003,39.0175,-122.05666670000001
2845,"Arcade, NY",2983.3333333333007,42.533888899999994,-78.4233333
2912,"Arcadia--Southeast Arcadia, FL",1933.3333333332998,27.215555600000005,-81.85861109999999
2899,"Arcadia, LA",1828.0,32.548888899999994,-92.92
2901,"Arcadia, WI",18778.4615384615,44.2527778,-91.50138890000001
2926,"Arcata-McKinleyville, CA",3151.0,40.9466667,-124.09944440000001
2953,"Archbold, OH",2550.0,41.5213889,-84.30722220000001
2965,"Archer Lodge--Clayton, NC",2908.5,35.650555600000004,-78.4566667
2980,"Arcola, IL",2270.0,39.6847222,-88.3063889
3007,"Ardmore, OK",1460.0,34.1741667,-97.1433333
3034,"Arecibo, PR",5600.0,18.4744444,-66.7161111
3088,"Arizona City, AZ",123595.375,32.7558333,-111.6702778
3115,"Arkadelphia, AR",1633.3333333332998,34.1208333,-93.0536111
3142,"Arkansas City, KS",9540.0,37.061944399999994,-97.03805559999999
3158,"Arlington, TN",24436.5416666667,35.296111100000005,-89.6613889
3196,"Arroyo Grande--Grover Beach, CA",6351.75,35.1216667,-120.6202778
3223,"Artesia, NM",1733.3333333332998,32.8422222,-104.4027778
3250,"Arvin, CA",38568.6923076923,35.209166700000004,-118.8275
3277,"Ashburn, GA",1875.0,31.7058333,-83.6533333
3304,"Ashdown, AR",953.3333333333001,33.6741667,-94.1311111
3331,"Asheboro, NC",11800.0,35.7077778,-79.81388890000001
3358,"Asheville, NC",9511.1111111111,35.6008333,-82.5541667
3439,"Ashland City, TN",34474.0,36.2741667,-87.0641667
3365,"Ashland, MO",7360.0,38.77444439999999,-92.2569444
3375,"Ashland, NE",1482.75,41.0391667,-96.3680556
3385,"Ashland, OH",2373.0,40.8686111,-82.31833329999999
3395,"Ashland, PA",2904.0,40.7816667,-76.34611109999999
3412,"Ashland, WI",7396.0,46.5925,-90.8836111
3466,"Ashtabula, OH",7168.75,41.865,-80.79
3493,"Ashville, OH",3290.0,39.7155556,-82.9530556
3520,"Aspen, CO",1550.0,39.1911111,-106.81694440000001
3547,"Astoria, OR",43103.1818181818,46.188055600000006,-123.83
3601,"Atchison, KS--MO",1066.6666666667,39.563055600000006,-95.12138890000001
3763,"Athens-Clarke County, GA",1000.0,33.951935,-83.357567
3655,"Athens, AL",3500.0,34.8027778,-86.9716667
3682,"Athens, OH",2000.0,39.3291667,-82.1013889
3709,"Athens, TN",1234.375,35.4427778,-84.5930556
3736,"Athens, TX",3000.0,32.2047222,-95.8552778
3790,"Athol, MA",31689.0,42.595833299999995,-72.2272222
3817,"Atlanta, GA",4000.0,33.7488889,-84.3880556
3844,"Atlanta, TX",953.3333333333001,33.1136111,-94.1641667
3898,"Atlantic City, NJ",18022.2222222222,39.3641667,-74.4233333
3871,"Atlantic, IA",900.0,41.403611100000006,-95.01361109999999
3925,"Atmore, AL",6945.0,31.023611100000004,-87.4938889
3957,"Atoka, TN",24436.5416666667,35.4411111,-89.7780556
3979,"Attica, IN",2375.0,40.2941667,-87.24888890000001
4006,"Attica, NY",2983.3333333333007,42.8641667,-78.2805556
4330,"Au Sable, MI",3880.0,44.4108333,-83.3322222
4021,"Aubrey, TX",78975.0,33.3041667,-96.9858333
4130,"Auburn--North Auburn, CA",72659.7083333333,38.896666700000004,-121.07583329999999
4033,"Auburn, AL",6793.210526315799,32.6097222,-85.4808333
4054,"Auburn, IL",2150.0,39.591666700000005,-89.74638890000001
4060,"Auburn, IN",1500.0,41.366944399999994,-85.05888890000001
4087,"Auburn, NE",900.0,40.3927778,-95.8386111
4114,"Auburn, NY",12064.5,42.9316667,-76.5663889
4222,"Augusta-Richmond County, GA--SC",2625.0,33.473498,-82.010515
4168,"Augusta, KS",9540.0,37.6866667,-96.9763889
4195,"Augusta, ME",2300.0,44.3105556,-69.78
4249,"Aumsville, OR",2100.0,44.841111100000006,-122.86972220000001
4276,"Aurora, MO",5803.3076923077015,36.970833299999995,-93.7177778
4303,"Aurora, NE",2941.8,40.8672222,-98.0038889
4357,"Austin, MN",17447.5,43.6666667,-92.9744444
4384,"Austin, TX",58266.6666666667,30.266944399999996,-97.7427778
4411,"Ava, MO",4780.0,36.951944399999995,-92.66027779999999
4438,"Avalon, CA",,33.3427778,-118.32694440000002
4465,"Avenal, CA",6351.75,36.0041667,-120.12805559999998
4519,"Avon, NY",35146.1538461538,42.911944399999996,-77.7458333
4549,"Avondale--Goodyear, AZ",123595.375,33.4352778,-112.3575
4573,"Avra Valley, AZ",23490.7619047619,32.4377778,-111.3147222
4587,"Aztec, NM",2750.0,36.8222222,-107.9922222
4600,"Bad Axe, MI",3880.0,43.8019444,-83.0008333
4627,"Bainbridge, GA",7500.0,30.903611100000003,-84.5755556
4654,"Baker City, OR",1353.3333333333,44.775,-117.83333329999999
4681,"Bakersfield, CA",38568.6923076923,35.3733333,-119.01777779999999
4708,"Bald Knob, AR",1410.0,36.281388899999996,-90.4480556
4789,"Baldwin City, KS",2700.0,38.775,-95.18611109999999
4762,"Baldwin, WI",1702.8571428572,44.966666700000005,-92.3741667
4816,"Ballinger, TX",3376.9230769231,31.738055600000003,-99.9469444
4843,"Baltimore, MD",122361.3125,39.2902778,-76.6125
4870,"Baltimore, OH",3290.0,39.8452778,-82.6008333
4897,"Bamberg, SC",65191.6666666667,33.296944399999994,-81.035
4924,"Bandon, OR",3500.0,43.1191667,-124.4072222
4951,"Bangor, ME",2300.0,44.8011111,-68.7783333
5086,"Bar Harbor, ME",266514.0,44.3875,-68.2044444
5005,"Baraboo, WI",1425.0,43.4711111,-89.74416670000001
5032,"Barbourville, KY",1200.0,36.8663889,-83.88888890000001
5059,"Bardstown, KY",2762.5,37.8091667,-85.4669444
5113,"Barnesville, GA",4840.0,33.054444399999994,-84.1558333
5140,"Barnesville, OH",5644.4444444445,39.9880556,-81.1766667
5167,"Barnstable Town, MA",17760.0,41.700321,-70.300202
5194,"Barnwell, SC",65191.6666666667,33.2447222,-81.35888890000001
5221,"Barre--Montpelier, VT",2478.5714285714002,44.26,-72.5758333
5248,"Barron, WI",1702.8571428572,45.40138889999999,-91.8488889
5275,"Barrow, AK",3850.0,71.2905556,-156.7886111
5302,"Barstow, CA",23734.2857142857,34.898611100000004,-117.02194440000001
5329,"Bartlesville, OK",14163.1578947368,36.7472222,-95.9805556
5356,"Bartlett, TX",5073.4375,30.794722200000002,-97.42527779999999
5410,"Basalt--El Jebel, CO",1550.0,39.395,-107.08972220000001
5423,"Basehor, KS",2700.0,39.1416667,-94.9383333
5437,"Bastrop, LA",4349.4166666667,32.756111100000005,-91.87222220000001
5464,"Bastrop, TX",58266.6666666667,30.1102778,-97.315
5491,"Batavia, NY",2983.3333333333007,42.9980556,-78.18777779999999
5518,"Batesburg-Leesville, SC",65191.6666666667,33.916388899999994,-81.51361109999999
5545,"Batesville, AR",1350.0,35.769722200000004,-91.6408333
5572,"Batesville, IN",1434.2857142857001,39.3,-85.2222222
5599,"Batesville, MS",4020.0,34.3113889,-89.9441667
5653,"Bath, NY",35146.1538461538,42.33694439999999,-77.3180556
5680,"Baton Rouge, LA",16631.6153846154,30.450555600000005,-91.1544444
5707,"Battle Creek, MI",2466.6666666667,42.3211111,-85.1797222
5761,"Battle Mountain, NV",840.0,40.6422222,-116.93333329999999
5734,"Battlement Mesa, CO",2750.0,39.166388899999994,-108.13833329999999
5788,"Baxley, GA",1875.0,31.778055600000005,-82.34861109999999
5815,"Baxter Springs, KS",5455.88,37.023611100000004,-94.73527779999999
5869,"Bay City, MI",3880.0,43.59444439999999,-83.88888890000001
5896,"Bay City, TX",3276.5,26.3327778,-97.4391667
5923,"Bay Minette, AL",6945.0,30.8827778,-87.77305559999999
5842,"Bayard, NM",2142.8571428572,32.7616667,-108.13
5904,"Bayfield, CO",2750.0,37.22555560000001,-107.5975
5958,"Bealeton, VA",4200.0,38.5716667,-77.7641667
5977,"Beardstown, IL",3000.0,40.0175,-90.4241667
6004,"Beatrice, NE",1482.75,40.268055600000004,-96.7466667
6031,"Beaufort--Port Royal, SC",4800.0,32.3788889,-80.69277779999999
6058,"Beaumont, TX",7921.5555555556,30.085833299999997,-94.1016667
6085,"Beaver Dam, KY",2899.5,37.4019444,-86.8758333
6112,"Beaver Dam, WI",123220.0,43.4577778,-88.83722220000001
6076,"Beaver, UT",8966.6666666667,38.2769444,-112.64027779999999
6128,"Becker, MN",4690.0,45.3933333,-93.8766667
6139,"Beckley, WV",2071.7857142857,37.7780556,-81.1883333
6166,"Bedford, IN",2620.8333333333,38.8611111,-86.4872222
6186,"Bedford, NY",10843.0,41.2041667,-73.6441667
6193,"Bedford, PA",46137.4166666667,40.0186111,-78.5041667
6220,"Bedford, VA",7843.75,37.334166700000004,-79.5233333
6247,"Beebe, AR",1350.0,35.070555600000006,-91.8794444
6261,"Beecher, IL",140155.083333333,41.3405556,-87.62138890000001
6274,"Beeville, TX",10394.4285714286,28.400555600000004,-97.7480556
6301,"Belding, MI",1864.2857142857001,43.097777799999996,-85.22888890000002
6335,"Belfair, WA",151865.05,47.4508333,-122.8261111
6355,"Belfast, ME",2300.0,44.4258333,-69.0069444
6382,"Belgrade, MT",2466.6666666667,45.7761111,-111.1761111
6490,"Belle Fourche, SD",1090.0,44.6713889,-103.8516667
6517,"Belle Glade, FL",85259.25,26.684166700000002,-80.6677778
6571,"Belle Plaine, MN",1700.0,44.6227778,-93.7683333
6436,"Bellefontaine, OH",1770.0,40.3611111,-83.75972220000001
6463,"Bellefonte, PA",6285.714285714301,40.9133333,-77.77861109999999
6598,"Bellevue, IA",4451.052631579,42.2586111,-90.42277779999999
6625,"Bellevue, OH",2373.0,41.273611100000004,-82.8416667
6652,"Bellingham, WA",2750.0,48.7597222,-122.48694440000001
6679,"Bellows Falls, VT--NH",5189.0833333333,43.1333333,-72.4444444
6692,"Bells, TN",2662.5,35.711111100000004,-89.0875
6706,"Bellville, TX",1328.5714285714,29.95,-96.2569444
6733,"Beloit, KS",1974.6,39.4561111,-98.1058333
6760,"Beloit, WI--IL",1681.9230769230999,42.5083333,-89.0316667
6770,"Belterra, TX",58266.6666666667,30.189736,-97.98380999999999
6779,"Belton, SC",1800.0,34.5227778,-82.4944444
6787,"Belvidere, NJ--PA",3360.0,40.8297222,-75.0780556
6814,"Belzoni, MS",1355.5,33.1841667,-90.4891667
6841,"Bemidji, MN",1761.25,47.47361110000001,-94.88
6868,"Bend, OR",3500.0,44.0583333,-121.31416670000002
6895,"Bennettsville, SC",1250.0,34.6172222,-79.685
6922,"Bennington, VT",5189.0833333333,42.8780556,-73.19722220000001
6949,"Benson, AZ",23490.7619047619,31.9677778,-110.2938889
6976,"Benson, MN",1897.0,45.315,-95.5997222
7003,"Benson, NC",2908.5,35.381944399999995,-78.54888890000001
7111,"Benton City, WA",5660.0,46.2633333,-119.48666670000001
7138,"Benton Harbor--St. Joseph--Fair Plain, MI",2712.5,42.08694439999999,-86.4558333
7030,"Benton, IL",2286.0,37.9966667,-88.92
7057,"Benton, KY",1706.25,36.8572222,-88.35027779999999
7084,"Benton, LA",7612.7777777778,32.6947222,-93.7416667
7165,"Berea, KY",2025.0,37.568611100000005,-84.29638890000001
7192,"Berlin, NH",2300.0,44.468611100000004,-71.1855556
7219,"Berlin, WI",123220.0,43.96805560000001,-88.94333329999999
7246,"Berne, IN",1736.0,40.6577778,-84.9519444
7273,"Berrien Springs, MI",2712.5,41.946388899999995,-86.33888890000001
7300,"Berryville, AR",4780.0,36.3647222,-93.56777779999999
7327,"Berryville, VA",4200.0,39.1516667,-77.9825
7354,"Bethany, MO",2025.0,40.2656,-94.0339
7381,"Bethel, AK",3850.0,60.792222200000005,-161.7558333
7408,"Bethel, OH",25050.0,38.9636111,-84.0808333
7462,"Beulah, ND",591.6666666666999,47.2633333,-101.7775
7489,"Bicknell, IN",937.5,38.7741667,-87.3077778
7508,"Big Bear City, CA",23734.2857142857,34.2611111,-116.84416670000002
7543,"Big Lake, TX",3376.9230769231,31.191388899999996,-101.46
7597,"Big Pine Key, FL",16333.333333333301,24.6694444,-81.35416670000001
7624,"Big Rapids, MI",3185.0,43.6980556,-85.48361109999999
7651,"Big Spring, TX",69809.7222222222,30.079722200000003,-95.4169444
7678,"Big Stone Gap, VA",8190.3529411765,36.881666700000004,-82.74722220000001
7705,"Billings, MT",9423.3333333333,45.783333299999995,-108.5
7732,"Binghamton, NY--PA",5100.0,42.09861110000001,-75.9183333
7759,"Birch Bay, WA",3850.0,48.9180556,-122.74333329999999
7786,"Birmingham, AL",64848.0,33.5205556,-86.8025
7813,"Bisbee, AZ",23490.7619047619,31.448055600000004,-109.92777779999999
7824,"Biscoe, NC",1350.0,35.3597222,-79.78
7840,"Bishop, CA",41198.0,37.3636111,-118.39416670000001
7867,"Bishop, TX",10394.4285714286,27.585833299999997,-97.79888890000001
7894,"Bishopville, SC",966.6666666666999,34.21805560000001,-80.24861109999999
7921,"Bismarck, ND",1695.0,46.8083333,-100.7833333
7975,"Black River Falls, WI",17447.5,44.861388899999994,-92.62361109999999
7948,"Blackfoot, ID",1050.0,43.1905556,-112.34416670000002
8002,"Blacksburg, VA",4595.0,37.2294444,-80.4141667
8029,"Blackshear, GA",4100.8,31.3058333,-82.2422222
8056,"Blackstone, VA",3112.5,37.0802778,-77.9975
8083,"Blackwell, OK",3550.0,36.804444399999994,-97.2825
8137,"Blair, NE",3325.0,41.544444399999996,-96.12472220000001
8164,"Blairsville, PA",8271.4285714286,40.4311111,-79.2611111
8191,"Blakely, GA",17884.0,31.3775,-84.9341667
8209,"Blanchard, OK",27552.3076923077,35.1377778,-97.65777779999999
8218,"Blanchester, OH",18936.111111111102,39.2930556,-83.9888889
8245,"Blanding, UT",2750.0,37.6241667,-109.4775
8272,"Blissfield, MI",2550.0,41.8325,-83.8625
8299,"Bloomer, WI",18778.4615384615,45.1002778,-91.48861109999999
8326,"Bloomfield, IN",7098.5714285714,39.0269444,-86.9375
8353,"Bloomfield, NM",2750.0,36.711111100000004,-107.9838889
8407,"Bloomington--Normal, IL",4696.5,40.514166700000004,-88.9905556
8380,"Bloomington, IN",7098.5714285714,39.1652778,-86.52638890000001
8434,"Bloomsburg--Berwick, PA",2904.0,41.054444399999994,-76.23361109999999
8461,"Blountstown, FL",9471.6428571429,30.4433333,-85.0452778
8488,"Blue Earth, MN",1388.3333333332998,43.6375,-94.10194440000001
8515,"Bluefield, WV--VA",1629.8571428572,37.269722200000004,-81.2225
8542,"Bluffton, IN",12500.0,40.7386111,-85.1716667
8569,"Bluffton, OH",1625.0,40.8952778,-83.88888890000001
8623,"Blythe, CA--AZ",10553.5714285714,33.6102778,-114.59555559999998
8650,"Blytheville, AR",1455.7142857142999,35.9272222,-89.91888890000001
8677,"Boardman, OR",5660.0,45.84,-119.69944440000002
8704,"Boerne, TX",50783.3333333333,29.794444399999996,-98.7316667
8731,"Bogalusa, LA",1312.5,30.7908333,-89.84861109999999
8749,"Boiling Spring Lakes, NC",4200.0,34.0302778,-78.0675
8758,"Boiling Springs, NC",1053.8461538462,35.2541667,-81.66722220000001
8785,"Boise City, ID",3920.0,43.61871,-116.214607
8812,"Bolivar, MO",5803.3076923077015,37.6144444,-93.41027779999999
8839,"Bolivar, OH",3391.5,40.65,-81.45222220000001
8866,"Bolivar, TN",2662.5,35.256111100000005,-88.98777779999999
8893,"Bonadelle Ranchos-Madera Ranchos, CA",8432.0,36.9311111,-119.88055559999998
8920,"Bonham, TX",1195.0,33.5772222,-96.1780556
8947,"Bonifay, FL",17884.0,30.7916667,-85.6797222
8974,"Bonita Springs, FL",13970.0,26.339444399999994,-81.77888890000001
8992,"Bonneauville, PA",4695.8333333333,39.811944399999994,-77.1375
9001,"Bonners Ferry, ID",12850.384615384599,48.6913889,-116.31527779999999
9028,"Boone, IA",500.0,42.0597222,-93.88
9055,"Boone, NC",2800.0,36.216666700000005,-81.6747222
9082,"Booneville, AR",20325.1875,35.14,-93.92138890000001
9109,"Booneville, MS",2380.0,34.658055600000004,-88.5666667
9163,"Boonville, IN",13915.2608695652,38.0491667,-87.2741667
9190,"Boonville, MO",1437.5,38.97361110000001,-92.7430556
9217,"Borger, TX",1050.0,35.667777799999996,-101.3969444
9244,"Boscobel, WI",1200.0,43.13444439999999,-90.70527779999999
9271,"Boston, MA--NH--RI",266514.0,42.3583333,-71.0602778
9325,"Boulder City, NV",25823.6,35.9786111,-114.83166670000001
9298,"Boulder, CO",800.0,40.015,-105.27
9352,"Bowie, TX",3150.0,33.5588889,-97.8483333
9379,"Bowling Green, KY",2400.0,38.140555600000006,-83.0752778
9406,"Bowling Green, MO",2996.1538461539008,39.341944399999996,-91.195
9433,"Bowling Green, OH",3391.5,40.9458333,-81.4833333
9460,"Box Elder, SD",9588.1111111111,44.1125,-103.06777779999999
9487,"Boyne City, MI",3185.0,45.216666700000005,-85.01388890000001
9514,"Bozeman, MT",1750.0,45.6797222,-111.03777779999999
9532,"Brackettville, TX",2400.0,29.310277799999998,-100.4175
9541,"Bradford, PA--NY",6520.0,41.9558333,-78.6441667
9568,"Brady, TX",2400.0,31.135,-99.3347222
9600,"Braidwood--Coal City--Wilmington, IL",140155.083333333,41.3077778,-88.1466667
9622,"Brainerd, MN",2010.0,46.35805560000001,-94.2005556
9649,"Brandon, SD",20318.8333333333,43.5947222,-96.57166670000001
9676,"Branson, MO",4780.0,36.6436111,-93.2183333
9703,"Brattleboro, VT--NH",31689.0,42.8508333,-72.5583333
9730,"Brawley, CA",7587.5,32.9786111,-115.52944440000002
9784,"Brazoria, TX",1691.6666666667002,29.0441667,-95.5688889
9801,"Breaux Bridge, LA",16190.0,30.273333299999997,-91.8991667
9811,"Breckenridge, CO",13720.0,39.4816667,-106.03777779999999
9838,"Breckenridge, TX",3325.0,32.7555556,-98.9019444
9865,"Breese, IL",983.3333333333001,38.610555600000005,-89.5269444
9892,"Bremen, GA",1687.5,33.7211111,-85.1455556
9919,"Bremen, IN",1316.6666666667,41.446388899999995,-86.14805559999999
9946,"Bremerton, WA",151865.05,47.5675,-122.63138889999999
9973,"Brenham, TX",1328.5714285714,30.1666667,-96.3975
10000,"Brent, AL",9227.8095238095,32.9372222,-87.1647222
10027,"Brevard, NC",1800.0,35.2333333,-82.7344444
10081,"Brewton, AL",18726.25,31.105,-87.07222220000001
10162,"Bridgeport--Stamford, CT--NY",300105.0,40.712784,-74.005941
10135,"Bridgeport, TX",3150.0,33.21,-97.7544444
10189,"Bridgeton, NJ",6486.666666666701,39.4272222,-75.2344444
10198,"Bridgeville, DE",6486.666666666701,38.7425,-75.60472220000001
10297,"Brillion, WI",5908.333333333299,44.1772222,-88.0641667
10324,"Brinkley, AR",1350.0,34.8877778,-91.1944444
10351,"Bristol--Bristol, TN--VA",2627.2,36.585627,-82.15746800000001
10378,"Bristow, OK",14163.1578947368,35.830555600000004,-96.3908333
10405,"Broadway, VA",2812.5,38.6130556,-78.7991667
10418,"Brockport, NY",2983.3333333333007,43.2136111,-77.9394444
10426,"Brockway, PA",9175.8333333333,41.2491667,-78.7997222
10459,"Brodhead, WI",1681.9230769230999,42.618333299999996,-89.37611109999999
10513,"Broken Bow, NE",1064.6666666667,41.4019444,-99.63888890000001
10540,"Broken Bow, OK",1195.0,34.029166700000005,-94.7388889
10567,"Brookfield, MO",3322.7272727273,39.7844444,-93.0733333
10594,"Brookhaven, MS",1140.0,31.578888899999995,-90.4405556
10621,"Brookings, OR",3500.0,42.0527778,-124.28277779999999
10648,"Brookings, SD",1130.0,44.3113889,-96.7980556
10675,"Brooklyn, MI",2466.6666666667,42.1058333,-84.2483333
10702,"Brookshire, TX",69809.7222222222,29.7858333,-95.9508333
10810,"Brookville, PA",9175.8333333333,41.16111110000001,-79.08333329999999
10837,"Brownfield, TX",952.5,33.1811111,-102.2738889
10864,"Browning, MT",1116.6666666667,48.5569444,-113.0125
10891,"Browns Mills--Fort Dix, NJ",18022.2222222222,40.0297222,-74.6188889
10918,"Brownstown, IN",1470.0,38.8788889,-86.0419444
10945,"Brownsville, TN",2662.5,35.593888899999996,-89.26222220000001
10972,"Brownsville, TX",3276.5,25.9013889,-97.49722220000001
10999,"Brownwood, TX",3325.0,31.7091667,-98.99083329999999
11026,"Brunswick, GA",4100.8,31.1497222,-81.4916667
11053,"Brunswick, MD--VA",4200.0,39.3141667,-77.6280556
11040,"Brunswick, ME",2300.0,43.914444399999994,-69.9658333
11080,"Brush, CO",4550.0,40.258888899999995,-103.6233333
11107,"Bryan, OH",1500.0,41.4747222,-84.5525
11134,"Buckeye, AZ",123595.375,33.3702778,-112.58305559999998
11161,"Buckhannon, WV",2606.5454545455,38.993888899999995,-80.23222220000001
11175,"Buckhead (Bryan County), GA",12150.0,31.853236,-81.269778
11188,"Buckner, MO",60467.5,39.1325,-94.1983333
11215,"Bucyrus, OH",2315.5,40.8083333,-82.97555559999999
11242,"Buena Vista, CO",1550.0,38.8422222,-106.13055559999998
11269,"Buena Vista, VA",1250.0,37.7341667,-79.35416670000001
11296,"Buffalo, MN",4690.0,45.171944399999994,-93.8744444
11323,"Buffalo, MO",1266.6666666667,37.6459,-93.0942
11350,"Buffalo, NY",37498.285714285696,42.8863889,-78.87861109999999
11377,"Buffalo, WY",816.6666666666998,44.3483333,-106.69833329999999
11404,"Buhl, ID",2050.0,42.599166700000005,-114.75861110000001
11415,"Buies Creek, NC",2908.5,35.41305560000001,-78.7358333
11431,"Bullhead City, AZ--NV",5795.833333333299,35.1477778,-114.5675
11512,"Bunkie, LA",6758.9473684211,30.953055600000003,-92.1825
11539,"Buras, LA",8726.6666666667,29.351666700000003,-89.5241667
11566,"Burgaw, NC",4200.0,34.5519444,-77.9263889
11575,"Burgettstown, PA",11057.1428571429,40.381944399999995,-80.3930556
11593,"Burkburnett, TX",600.0,34.097777799999996,-98.5702778
11620,"Burley, ID",1900.0,42.5358333,-113.79194440000002
11647,"Burlington, CO",3698.3333333333003,39.3061111,-102.26888890000001
11674,"Burlington, IA--IL",2187.5,40.8075,-91.11277779999999
11701,"Burlington, KS",1126.0,38.194444399999995,-95.7425
11728,"Burlington, NC",2500.0,36.095555600000004,-79.4380556
11755,"Burlington, VT",2478.5714285714002,44.4758333,-73.2125
11782,"Burlington, WI",30666.6666666667,42.67805560000001,-88.2761111
11809,"Burnet, TX",56445.4545454545,30.758055600000006,-98.2280556
11836,"Burney, CA",3151.0,40.8825,-121.6597222
11863,"Burns, OR",9711.1111111111,43.586388899999996,-119.0530556
11872,"Burnt Store Marina, FL",4860.0,26.7647222,-82.05111109999999
11890,"Bushnell, FL",3110.0,28.6647222,-82.1130556
11917,"Bushnell, IL",2187.5,40.5527778,-90.5061111
11944,"Butler, IN",1500.0,41.4297222,-84.87138890000001
11971,"Butler, MO",1500.0,38.2538,-94.3356
11998,"Butler, PA",42366.6666666667,40.8611111,-79.8955556
12025,"Butner, NC",14295.0,36.131944399999995,-78.7569444
12052,"Butte-Silver Bow, MT",913.0,46.0036111,-112.66694440000002
12079,"Byron, IL",7927.7777777778,42.1269444,-89.2555556
12106,"Byron, MN",17447.5,44.0327778,-92.64527779999999
13267,"Ca_on City, CO",1550.0,38.449406,-105.22533200000001
12120,"Cache, OK",600.0,34.6294444,-98.6283333
12133,"Cactus, TX",1050.0,36.0522222,-102.0019444
12160,"Cadillac, MI",3185.0,44.2519444,-85.4011111
12187,"Cadiz, KY",1706.25,36.865,-87.8352778
12214,"Cadiz, OH",5644.4444444445,40.2727778,-80.9969444
12241,"Cairo, GA",7500.0,30.877222200000002,-84.20138890000001
12268,"Cairo, IL",1955.0,37.0052778,-89.1763889
12295,"Calais, ME",266514.0,45.188888899999995,-67.2791667
12322,"Caldwell, OH",2315.0,39.7477778,-81.5166667
12349,"Caldwell, TX",5600.0,30.531111100000004,-96.69277779999999
12376,"Caledonia, MN",18778.4615384615,43.6347222,-91.4966667
12457,"Calhoun, GA",2256.25,34.5025,-84.95111109999999
12565,"California City, CA",38568.6923076923,35.1258333,-117.985
12511,"California, MO",7360.0,38.6275,-92.5663889
12592,"Calipatria, CA",7587.5,33.125555600000006,-115.51333329999999
12646,"Calistoga, CA",3712.3333333333003,38.578888899999995,-122.5786111
12713,"Camano North, WA",2750.0,48.173986,-122.52821399999999
12700,"Camano, WA",2750.0,48.1741667,-122.52694440000002
12754,"Camarillo, CA",261570.416666667,34.2163889,-119.03666670000001
12781,"Cambria, CA",6351.75,35.5641667,-121.0797222
12889,"Cambridge City, IN",633.3333333333001,39.8125,-85.1716667
12890,"Cambridge Springs, PA",10437.8333333333,39.733611100000005,-79.14944440000001
12808,"Cambridge, MD",122361.3125,38.563055600000006,-76.0791667
12835,"Cambridge, MN",1700.0,45.5727778,-93.2241667
12862,"Cambridge, OH",2375.0,40.031111100000004,-81.5886111
12872,"Cambridge, WI",2050.0,43.0036111,-89.01638890000001
12916,"Camden, AR",1828.0,33.584444399999995,-92.8341667
12943,"Camden, ME",2300.0,44.2097222,-69.06527779999999
12970,"Camden, SC",3640.0,34.2463889,-80.60722220000001
12997,"Camden, TN",1400.0,36.0588889,-88.09777779999999
13024,"Camdenton, MO",1266.6666666667,38.008055600000006,-92.7444444
13051,"Cameron, MO",5816.666666666701,39.7402778,-94.24083329999999
13078,"Cameron, TX",8230.0,30.853055600000005,-96.9766667
13132,"Camilla, GA",7500.0,31.231111100000003,-84.21055559999999
13170,"Camp Verde, AZ",123595.375,34.716111100000006,-111.99416670000001
13159,"Campbellsville, KY",2025.0,37.3433333,-85.3419444
13177,"Canadian, TX",600.0,35.9127778,-100.3816667
13221,"Canby, OR",43103.1818181818,45.2630556,-122.69138889999999
13240,"Cannon Falls, MN",17447.5,44.506944399999995,-92.9052778
13294,"Canton, IL",1550.0,40.5580556,-90.035
13321,"Canton, MS",13315.9090909091,32.6125,-90.0366667
13348,"Canton, NY",500.0,44.595555600000004,-75.1694444
13375,"Canton, OH",3391.5,40.798888899999994,-81.37861109999999
13402,"Canton, SD",20318.8333333333,43.3008333,-96.5925
13429,"Canton, TX",3000.0,32.556388899999995,-95.8630556
13483,"Canyon Lake, TX",50783.3333333333,29.875,-98.26222220000001
13456,"Canyon, TX",1050.0,34.980277799999996,-101.9183333
13510,"Cape Coral, FL",13970.0,26.5625,-81.94972220000001
13537,"Cape Girardeau, MO--IL",3990.0,37.305833299999996,-89.5180556
13550,"Captain Cook, HI",114990.576923077,19.4969444,-155.9216667
13564,"Carbondale, CO",1550.0,39.402222200000004,-107.21055559999999
13591,"Carbondale, IL",3060.0,37.7272222,-89.2166667
13618,"Carey, OH",1730.0,40.9525,-83.3825
13645,"Caribou, ME",2300.0,46.860555600000005,-68.0125
13699,"Carlinville, IL",3000.0,39.2797222,-89.8816667
13753,"Carlisle, IA",36386.5625,41.5008333,-93.49083329999999
13807,"Carlsbad, NM",1733.3333333332998,32.42055560000001,-104.2283333
13821,"Carlton, OR",2100.0,45.294444399999996,-123.17527779999999
13834,"Carlyle, IL",983.3333333333001,38.6102778,-89.3725
13850,"Carmel Valley Village, CA",10606.25,36.4861111,-121.72277779999999
13861,"Carmi, IL",13915.2608695652,38.0908333,-88.15861109999999
13915,"Caro, MI",3880.0,43.491111100000005,-83.3969444
13969,"Carrizo Springs, TX",7578.0,28.5216667,-99.86027779999999
13996,"Carroll, IA",500.0,42.0658333,-94.8666667
14023,"Carrollton, GA",1687.5,33.58,-85.0766667
14050,"Carrollton, KY",1127.1428571428999,38.680833299999996,-85.17944440000001
14077,"Carrollton, MO",1437.5,39.3583333,-93.4955556
14104,"Carrollton, OH",11057.1428571429,40.5727778,-81.0858333
14158,"Carson City, NV",20514.8125,39.163888899999996,-119.7663889
14185,"Cartersville, GA",2256.25,34.165,-84.8
14212,"Carthage, IL",2187.5,40.416388899999994,-91.1361111
14266,"Carthage, MO",5455.88,37.1763889,-94.31
14239,"Carthage, MS",13315.9090909091,32.7325,-89.53611109999999
14320,"Carthage, TN",2810.0,36.2522222,-85.9516667
14347,"Carthage, TX",953.3333333333001,32.1572222,-94.33722220000001
14374,"Caruthersville, MO",1455.7142857142999,36.1930556,-89.6555556
14401,"Casa Grande, AZ",123595.375,32.8794444,-111.75666670000001
14428,"Casey, IL",2270.0,39.2991667,-87.9925
14455,"Cashmere, WA",2527.7777777778,47.5225,-120.4686111
14482,"Casper, WY",4267.5,42.8666667,-106.3125
14536,"Cassville, MO",4780.0,36.6769444,-93.8686111
14556,"Castle Dale, UT",8966.6666666667,39.2122222,-111.0188889
14570,"Castle Rock, WA",43103.1818181818,46.2752778,-122.9063889
14590,"Castroville, TX",50783.3333333333,29.355555600000002,-98.8783333
14644,"Catskill, NY",28526.0,42.2172222,-73.865
14671,"Cazenovia, NY",12064.5,42.93,-75.8530556
14698,"Cedar City, UT",3200.0,37.6775,-113.0611111
14752,"Cedar Rapids, IA",9709.3333333333,42.0083333,-91.64388890000001
14779,"Cedar Springs, MI",17107.2727272727,43.2233333,-85.5513889
14705,"Cedaredge, CO",2750.0,38.9016667,-107.9258333
14806,"Cedartown, GA",1687.5,34.053611100000005,-85.255
14833,"Cedarville, OH",5083.3333333333,39.7441667,-83.8086111
14860,"Celina, OH",1736.0,40.548888899999994,-84.5702778
14887,"Center, TX",1983.3333333332998,31.795277799999997,-94.1788889
14914,"Centerville, IA",3322.7272727273,40.7341667,-92.87388890000001
14995,"Central City--Greenville, KY",2899.5,37.201111100000006,-87.1788889
14968,"Central City, NE",2941.8,41.1158333,-98.00138890000001
15022,"Centralia, IL",983.3333333333001,38.525,-89.1333333
15049,"Centralia, MO",1718.1818181817996,39.2102778,-92.1377778
15076,"Centralia, WA",151865.05,46.7163889,-122.95305559999998
15083,"Centre, AL",5390.6666666667,34.1519444,-85.6788889
15090,"Centreville, MD",122361.3125,39.0416667,-76.0666667
15103,"Century, FL--AL",18726.25,30.973055600000006,-87.26388890000001
15130,"Chadron, NE",3375.0,42.82944439999999,-102.9994444
15157,"Chaffee, MO",3990.0,37.18,-89.655
15184,"Chambersburg, PA",4695.8333333333,39.9375,-77.6613889
15211,"Champaign, IL",2500.0,40.1163889,-88.2433333
15238,"Chandler, OK",1460.0,35.701666700000004,-96.8805556
15265,"Chanute, KS",895.8,37.6791667,-95.4569444
15292,"Chaparral, NM",9305.7142857143,32.0114,-106.5717
15319,"Chardon, OH",26454.6,41.6141667,-81.1491667
15346,"Chariton, IA",36386.5625,41.0138889,-93.3063889
15373,"Charles City, IA",9709.3333333333,43.0663889,-92.67222220000001
15600,"Charles Town--Ranson, WV",4200.0,39.295,-77.8608333
15508,"Charleston--North Charleston, SC",4800.0,32.77638889999999,-79.9311111
15400,"Charleston, IL",2270.0,39.4961111,-88.17611109999999
15454,"Charleston, MO",1955.0,36.9208333,-89.35055559999999
15427,"Charleston, MS",1602.75,34.006666700000004,-90.05666670000001
15481,"Charleston, WV",3214.25,38.3497222,-81.6327778
15535,"Charlestown, IN",1127.1428571428999,38.453055600000006,-85.6702778
15562,"Charlestown, NH",2300.0,43.2386111,-72.425
15589,"Charlestown, RI",3830.0,41.383055600000006,-71.6422222
15616,"Charlevoix, MI",3185.0,45.3180556,-85.2583333
15643,"Charlotte, MI",10000.0,42.5636111,-84.8358333
15670,"Charlotte, NC--SC",3430.0,35.226944399999994,-80.8433333
15724,"Charlottesville, VA",8100.0,38.029166700000005,-78.47694440000001
15751,"Chase City, VA",944.0,36.7991667,-78.45861109999998
15769,"Chatfield, MN",1702.8571428572,43.845555600000004,-92.18888890000001
15805,"Chattahoochee, FL",7500.0,30.705,-84.8430556
15832,"Chattanooga, TN--GA",3500.0,35.04555560000001,-85.30972220000001
15859,"Cheboygan, MI",3185.0,45.646944399999995,-84.4744444
15886,"Checotah, OK",1575.0,35.47,-95.5227778
15913,"Chelan, WA",2527.7777777778,47.841111100000006,-120.01527779999999
15940,"Chelsea, MI",4500.0,42.3180556,-84.0205556
15967,"Cheney, WA",12850.384615384599,47.4875,-117.57472220000001
15994,"Cheraw, SC",1350.0,34.6975,-79.8836111
16048,"Cherokee Village, AR",1828.0,33.2633333,-93.0538889
16021,"Cherokee, IA",1003.75,42.749444399999994,-95.5513889
16075,"Cherryville, NC",1053.8461538462,35.3786111,-81.3791667
16102,"Chesapeake Beach, MD",3500.0,38.686111100000005,-76.535
16140,"Chesnee, SC",1400.0,35.1483333,-81.86111109999999
16156,"Chester, IL",3990.0,37.913611100000004,-89.8219444
16171,"Chester, NY",300105.0,41.3625,-74.2716667
16183,"Chester, SC",3430.0,34.7047222,-81.2144444
16210,"Chestertown, MD",122361.3125,39.2088889,-76.0669444
16223,"Chetek, WI",1702.8571428572,45.3141667,-91.6508333
16237,"Cheyenne, WY",800.0,41.14,-104.8197222
16264,"Chicago, IL--IN",140155.083333333,41.85,-87.65
16291,"Chickasha, OK",27552.3076923077,35.0525,-97.93611109999999
16318,"Chico, CA",6363.0,39.7286111,-121.8363889
16372,"Childress, TX",600.0,34.4263889,-100.20361109999999
16426,"Chillicothe, MO",1437.5,39.7952778,-93.5522222
16453,"Chillicothe, OH",2867.1666666666997,39.3330556,-82.9825
16480,"Chilton, WI",4956.25,44.0288889,-88.16277779999999
16534,"Chinle, AZ",2560.0,36.154444399999996,-109.55194440000001
16561,"Chino Valley, AZ",123595.375,34.7575,-112.45305559999998
16588,"Chipley, FL",17884.0,30.781666700000002,-85.5386111
16615,"Chisholm, MN",7396.0,47.4891667,-92.8836111
16642,"Chittenango, NY",12064.5,43.045,-75.86694440000001
16696,"Chowchilla, CA",8432.0,37.1230556,-120.25916670000001
16777,"Christopher, IL",3060.0,37.9725,-89.05333329999999
16831,"Church Point, LA",4349.4166666667,32.6608333,-92.2775
16858,"Churchville, NY",35146.1538461538,43.1041667,-77.88472220000001
16885,"Cincinnati, OH--KY--IN",25050.0,39.161944399999996,-84.4569444
16912,"Circleville, OH",2867.1666666666997,39.60055560000001,-82.9461111
16939,"Cisco, TX",3325.0,32.3880556,-98.97888890000002
17047,"Clanton, AL",7073.333333333299,32.8386111,-86.6294444
17074,"Clare, MI",3483.75,43.819444399999995,-84.76861109999999
17101,"Claremont, NH",2300.0,43.3766667,-72.3472222
17128,"Claremore, OK",14163.1578947368,36.3125,-95.61583329999999
17155,"Clarinda, IA",2025.0,40.741944399999994,-95.03805559999999
17182,"Clarion, IA",500.0,42.7316667,-93.7327778
17209,"Clarion, PA",1500.0,41.214722200000004,-79.3855556
17236,"Clarksburg, WV",2606.5454545455,39.28055560000001,-80.3447222
17263,"Clarksdale, MS",1267.6666666667,34.2,-90.5708333
17290,"Clarksville, AR",1600.0,35.471388899999994,-93.46638890000001
17317,"Clarksville, TN--KY",9539.0,36.5297222,-87.3594444
17344,"Clarksville, TX",1195.0,33.610555600000005,-95.0525
17371,"Claxton, GA",1375.0,32.1613889,-81.9041667
17398,"Clay Center, KS",1126.0,39.3769444,-97.1244444
17420,"Clayton, GA",3625.0,34.8780556,-83.4011111
17560,"Cle Elum, WA",2527.7777777778,47.195555600000006,-120.93805559999998
17506,"Clear Lake, IA",500.0,43.1380556,-93.3791667
17452,"Clearfield, PA",9175.8333333333,41.027222200000004,-78.4394444
17514,"Clearlake Riviera, CA",261570.416666667,34.0577778,-118.50055559999998
17479,"Clearlake, CA",3712.3333333333003,38.9583333,-122.62527779999999
17524,"Clearwood, WA",151865.05,46.891667,-123.038362
17533,"Cleburne, TX",3150.0,32.3475,-97.38638890000001
17625,"Cleveland, GA",3625.0,34.5969444,-83.7633333
17641,"Cleveland, MS",1603.6666666667002,33.743888899999995,-90.7247222
17668,"Cleveland, OH",110788.5625,41.499444399999994,-81.69555559999999
17695,"Cleveland, OK",14163.1578947368,36.31,-96.46388890000001
17722,"Cleveland, TN",1893.3333333332998,35.1594444,-84.8766667
17749,"Cleveland, TX",2275.0,30.341111100000003,-95.0852778
17776,"Clewiston, FL",22166.6666666667,26.753888899999996,-80.93388890000001
17857,"Clifton Forge, VA",7843.75,37.8161111,-79.82472220000001
17870,"Clifton Springs, NY",3830.0,41.0161111,-72.1597222
17803,"Clifton, AZ",2142.8571428572,33.0508333,-109.29555559999999
17830,"Clifton, TX",8230.0,31.7822222,-97.57638890000001
17938,"Clinton, IA--IL",1473.125,41.84444439999999,-90.18861109999999
17884,"Clinton, IL",4054.1666666666997,40.153611100000006,-88.9644444
17911,"Clinton, IN",5048.6363636364,39.65694439999999,-87.39805559999999
17965,"Clinton, MO",1500.0,38.3686111,-93.7780556
17992,"Clinton, NC",3602.5,34.9977778,-78.3236111
18019,"Clinton, OK",600.0,35.515555600000006,-98.9669444
18046,"Clinton, SC",1400.0,34.4725,-81.88083329999999
18100,"Clintonville, WI",1305.0,44.6205556,-88.76222220000001
18127,"Cloquet, MN",7396.0,46.7216667,-92.4591667
18154,"Clover, SC",1053.8461538462,35.1111111,-81.2266667
18181,"Cloverdale, CA",3712.3333333333003,38.805555600000005,-123.0161111
18208,"Clovis, NM",952.5,34.4047222,-103.2047222
18235,"Clyde, OH",1416.0,41.3041667,-82.97527779999999
18262,"Clyde, TX",3325.0,32.4058333,-99.4933333
18289,"Coalinga, CA",6351.75,36.1397222,-120.35916670000002
18316,"Coamo, PR",3000.0,18.081944399999998,-66.3583333
18343,"Cobleskill, NY",28526.0,42.6777778,-74.4858333
18370,"Cochran, GA",4840.0,32.3866667,-83.35472220000001
18383,"Coco--Salinas, PR",3000.0,17.9794444,-66.2983333
18397,"Cody, WY",9423.3333333333,44.52638889999999,-109.05583329999999
18424,"Coeburn, VA",8190.3529411765,36.9438889,-82.4641667
18451,"Coeur d'Alene, ID",12850.384615384599,47.677683,-116.78046599999999
18478,"Coffeyville, KS--OK",14163.1578947368,37.0372222,-95.6161111
18505,"Cokato, MN",1190.0,45.0758333,-94.1897222
18532,"Colby, KS",1064.6666666667,39.3958333,-101.0519444
18559,"Colchester, CT",3830.0,41.5755556,-72.3325
18586,"Cold Spring, MN",4690.0,45.4558333,-94.4286111
18613,"Cold Spring, NY",300105.0,41.42,-73.955
18667,"Coldwater, MI",1466.6666666667002,41.9402778,-85.0005556
18680,"Coldwater, OH",1736.0,40.4797222,-84.6283333
18694,"Coleman, TX",3325.0,31.8272222,-99.42611109999999
18712,"Colfax, CA",72659.7083333333,39.1008333,-120.95222220000001
18721,"Colfax, WA",1360.0,46.8802778,-117.3633333
18748,"College Station--Bryan, TX",5600.0,30.6741667,-96.36972220000001
18760,"Collinsville, OK",14163.1578947368,36.3644444,-95.8386111
18775,"Colonial Beach, VA",3500.0,38.2544444,-76.96388890000001
18802,"Colorado City, AZ--UT",5795.833333333299,36.9902778,-112.975
18829,"Colorado City, TX",3276.5,26.3327778,-97.4391667
18856,"Colorado Springs, CO",12263.125,38.8338889,-104.8208333
19018,"Columbia City, IN",850.0,41.1572222,-85.4883333
19045,"Columbia Falls, MT",1116.6666666667,48.3725,-114.18055559999999
18883,"Columbia, KY",750.0,37.1027778,-85.3063889
18937,"Columbia, MO",7360.0,38.951666700000004,-92.3338889
18910,"Columbia, MS",1312.5,31.2516667,-89.8375
18964,"Columbia, SC",3640.0,34.000555600000006,-81.035
18991,"Columbia, TN",2712.5,35.615,-87.03527779999999
19060,"Columbiana, AL",29398.5454545455,33.17805560000001,-86.60722220000001
19072,"Columbiana, OH",15860.0,40.8883333,-80.6941667
19315,"Columbus AFB, MS",4601.5,33.635698,-88.435542
19099,"Columbus, GA--AL",2808.6666666666997,32.4608333,-84.98777779999999
19126,"Columbus, IN",2783.3333333333007,39.2013889,-85.92138890000001
19153,"Columbus, KS",895.8,37.1691667,-94.84388890000001
19180,"Columbus, MS",4601.5,33.4955556,-88.4272222
19207,"Columbus, NE",807.25,41.4297222,-97.3680556
19234,"Columbus, OH",3290.0,39.961111100000004,-82.99888890000001
19261,"Columbus, TX",1328.5714285714,29.706388899999997,-96.53944440000001
19288,"Columbus, WI",2050.0,43.338055600000004,-89.01527779999999
19342,"Colusa, CA",6363.0,39.2144444,-122.00833329999999
19369,"Colville, WA",12850.384615384599,48.5466667,-117.90444440000002
19396,"Comanche, TX",5073.4375,31.8972222,-98.6033333
19423,"Comfort, TX",2400.0,29.9675,-98.90472220000001
19450,"Commerce, GA",1000.0,34.203888899999995,-83.4572222
19477,"Commerce, TX",1195.0,33.2469444,-95.89972220000001
19504,"Concord, CA",114990.576923077,37.978055600000005,-122.03
19558,"Concord, NC",3430.0,35.4086111,-80.5797222
19531,"Concord, NH",2300.0,43.2080556,-71.53805559999999
19585,"Concordia, KS",1974.6,39.5708333,-97.6622222
19597,"Conesus Lake, NY",35146.1538461538,42.785308,-77.71373100000001
19612,"Conneaut, OH",7168.75,41.9475,-80.55444440000001
19666,"Connell, WA",5660.0,46.663611100000004,-118.86
19693,"Connersville, IN",1266.6666666667,39.6411111,-85.14111109999999
19720,"Conrad, MT",1820.0,48.1702778,-111.9452778
19755,"Conroe--The Woodlands, TX",69809.7222222222,30.157777799999998,-95.4891667
19774,"Constantine, MI",2700.0,41.841111100000006,-85.66861109999999
19801,"Conway, AR",11976.666666666699,35.0886111,-92.4419444
19828,"Cookeville, TN",2810.0,36.1627778,-85.5016667
19882,"Coolidge, AZ",123595.375,32.9777778,-111.51694440000001
19909,"Coopersville, MI",17107.2727272727,43.063888899999995,-85.93472220000001
19936,"Coos Bay, OR",3500.0,43.3666667,-124.21666670000002
19990,"Coquille, OR",3500.0,43.1772222,-124.1863889
20044,"Corcoran, CA",6351.75,36.0980556,-119.55944440000002
20071,"Cordele, GA",4840.0,31.9633333,-83.7825
20098,"Corinth, MS",2380.0,34.9341667,-88.5222222
20125,"Corinth, NY",3450.0,43.2444444,-73.83277779999999
20152,"Cornelia--Baldwin, GA",3625.0,34.4916667,-83.5375
20179,"Corning, AR",1410.0,36.4077778,-90.5797222
20206,"Corning, CA",6363.0,39.9277778,-122.1780556
20233,"Corning, NY",5100.0,42.1427778,-77.055
20247,"Corona de Tucson, AZ",23490.7619047619,32.2216667,-110.9258333
20287,"Corpus Christi, TX",10394.4285714286,27.8002778,-97.39611109999998
20314,"Corry, PA",1500.0,41.9202778,-79.6405556
20341,"Corsicana, TX",3000.0,32.0952778,-96.46861109999999
20368,"Cortez, CO",2750.0,37.3488889,-108.5852778
20395,"Cortland, NY",12064.5,42.601111100000004,-76.1808333
20422,"Corvallis, OR",2100.0,44.5647222,-123.26083329999999
20449,"Corydon, IN",2620.8333333333,38.21194439999999,-86.1219444
20476,"Coshocton, OH",2395.0,40.271944399999995,-81.85972220000001
20503,"Cottage Grove, OR",3500.0,43.7977778,-123.05833329999999
20530,"Cottonport, LA",6758.9473684211,30.983888899999997,-92.05333329999999
20595,"Cottonwood--Verde Village, AZ",123595.375,34.694984999999996,-111.98205800000001
20584,"Cottonwood, CA",3151.0,40.3858333,-122.27972220000001
20611,"Cotulla, TX",7578.0,28.4366667,-99.23472220000001
20632,"Country Lakes, MD",3500.0,38.40555560000001,-76.7944444
20665,"Covington, IN",1277.0,40.1416667,-87.3947222
20692,"Covington, OH",3414.1818181818,40.1172222,-84.35388890000002
20719,"Covington, TN",1455.7142857142999,35.5641667,-89.6463889
20746,"Covington, VA",11862.5,37.7933333,-79.99416670000001
20773,"Coxsackie, NY",28526.0,42.3508333,-73.80333329999999
20800,"Cozad, NE",1064.6666666667,40.8597222,-99.9869444
20827,"Craig, CO",1240.0,40.5152778,-107.54583329999998
20854,"Crane, TX",1611.4285714285998,31.3972222,-102.3497222
20881,"Crawfordsville, IN",500.0,40.0411111,-86.8744444
20890,"Crawfordville, FL",7500.0,30.175833299999997,-84.37527779999999
20908,"Crescent City, CA",3151.0,41.756111100000005,-124.20055559999999
20935,"Crescent City, FL",2250.0,29.43,-81.5108333
20962,"Cresco, IA",9709.3333333333,43.3813889,-92.1138889
20980,"Cresson, PA",46137.4166666667,40.4597222,-78.5919444
21016,"Creston, IA",2025.0,41.0586111,-94.36111109999999
21043,"Crestview, FL",7695.818181818199,30.761944399999997,-86.57055559999999
21070,"Creswell, OR",3500.0,43.9180556,-123.02333329999999
21097,"Crete, NE",807.25,40.6277778,-96.9611111
21124,"Crewe, VA",4321.7647058823995,37.173055600000005,-78.12361109999999
21151,"Crisfield, MD",3100.0,37.9833333,-75.85416670000001
21178,"Crittenden, KY",25050.0,38.7827778,-84.6052778
21205,"Crockett, TX",1260.0,31.318055600000005,-95.45638890000001
21220,"Crooked Lake Park, FL",85259.25,26.8,-80.0666667
21232,"Crookston, MN",3533.3333333333007,47.7741667,-96.6077778
21259,"Crooksville, OH",4000.0,39.76888889999999,-82.09222220000001
21286,"Crosby, MN",2010.0,46.4822222,-93.9575
21313,"Cross City, FL",2045.0,29.6341667,-83.12527779999999
21340,"Crossett, AR",4349.4166666667,33.1280556,-91.9611111
21394,"Crossville, TN",1860.0,35.9488889,-85.0269444
21421,"Crowley, LA",2327.2727272726997,30.213888899999997,-92.3744444
21448,"Crozet, VA",1250.0,38.069444399999995,-78.7008333
21502,"Crystal City, TX",3276.5,26.3327778,-97.4391667
21529,"Crystal River, FL",3300.0,28.9022222,-82.5927778
21556,"Crystal Springs, MS",13315.9090909091,31.9872222,-90.3569444
21583,"Cuba, MO",2653.8461538461997,38.0627778,-91.4033333
21610,"Cuero, TX",2235.7142857143,29.093611100000004,-97.2888889
21637,"Cullman, AL",3980.0,34.1747222,-86.84361109999999
21664,"Cullowhee, NC",1800.0,35.3136111,-83.1766667
21691,"Culpeper, VA",8100.0,38.4730556,-77.9969444
21718,"Cumberland, KY",8190.3529411765,36.978055600000005,-82.98861109999999
21745,"Cumberland, MD--WV--PA",7803.6,39.6527778,-78.7627778
21760,"Curwensville, PA",9175.8333333333,40.97555560000001,-78.5252778
21772,"Cushing, OK",3550.0,35.985,-96.7666667
21799,"Cut Bank, MT",1820.0,48.633055600000006,-112.3252778
21826,"Cuthbert, GA",2808.6666666666997,31.771111100000002,-84.78944440000001
21853,"Cynthiana, KY",750.0,38.3902778,-84.2941667
21928,"Dahlgren, VA--MD",3500.0,38.3311111,-77.0513889
21934,"Dahlonega, GA",3625.0,34.5325,-83.985
21961,"Daingerfield, TX",5990.625,33.0316667,-94.7216667
21988,"Dalhart, TX",1050.0,36.0594444,-102.5127778
22042,"Dallas--Fort Worth--Arlington, TX",41460.0,32.735555600000005,-97.1077778
22015,"Dallas, OR",2100.0,44.919444399999996,-123.31583329999998
22069,"Dalton, GA",3207.1428571428996,34.769722200000004,-84.97027779999999
22079,"Dalton, OH",3391.5,40.798888899999994,-81.69555559999999
22096,"Danbury, CT--NY",10843.0,41.394722200000004,-73.4544444
22110,"Dandridge, TN",2216.6666666667,36.0152778,-83.415
22177,"Dansville, NY",35146.1538461538,42.5608333,-77.6963889
22204,"Danville, IL",1277.0,40.124444399999994,-87.63
22231,"Danville, KY",2025.0,37.6455556,-84.7722222
22253,"Danville, VA--NC",2500.0,36.5858333,-79.39527779999999
22285,"Daphne--Fairhope, AL",6945.0,30.5227778,-87.9033333
22301,"Darbydale, OH",3290.0,39.8536111,-83.1830556
22312,"Darien, GA",4100.8,31.37,-81.4341667
22366,"Davenport, IA--IL",33565.3333333333,41.523611100000004,-90.5775
22393,"David City, NE",807.25,41.2527778,-97.1297222
22435,"Davis Junction, IL",13915.2608695652,37.7233333,-88.2366667
22420,"Davis, CA",72659.7083333333,38.545,-121.73944440000001
22427,"Davis, OK",1460.0,34.5044444,-97.11916670000001
22447,"Dawson, GA",2808.6666666666997,31.773333299999997,-84.44666670000001
22501,"Dayton, NV",20514.8125,39.2372222,-119.59194440000002
22528,"Dayton, OH",18936.111111111102,39.758888899999995,-84.1916667
22555,"Dayton, TN",1893.3333333332998,35.493888899999995,-85.0125
22582,"Dayton, TX",69809.7222222222,30.046388899999997,-94.885
22609,"Dayton, WA",1353.3333333333,46.3238889,-117.9713889
22933,"De Funiak Springs, FL",7695.818181818199,30.7208333,-86.11527779999999
23392,"De Motte, IN",140155.083333333,41.193718,-87.198642
23608,"De Queen, AR",20325.1875,34.0377778,-94.34111109999999
23770,"De Soto, KS",2700.0,38.9791667,-94.9683333
23797,"De Soto, MO",3058.75,38.139444399999995,-90.555
23986,"De Witt, IA",33565.3333333333,41.8233333,-90.53805559999999
22690,"Decatur, AL",5507.6923076922985,34.6058333,-86.9833333
22717,"Decatur, IL",4054.1666666666997,39.8402778,-88.9547222
22744,"Decatur, IN",12500.0,40.830555600000004,-84.9291667
22771,"Decatur, TX",3150.0,33.2341667,-97.5858333
22798,"Decorah, IA",9709.3333333333,43.3033333,-91.7855556
22825,"Deer Lodge, MT",913.0,46.3958333,-112.72916670000001
22852,"Deer Park, WA",12850.384615384599,47.95444439999999,-117.47583329999999
22864,"Deerwood, TX",78975.0,32.902553999999995,-96.43717099999999
22879,"Defiance, OH",1841.25,41.2844444,-84.3558333
22960,"DeKalb, IL",7927.7777777778,41.929444399999994,-88.75027779999999
23203,"Del Rio, TX",3376.9230769231,29.3625,-100.8963889
22987,"Delano, CA",11370.125,35.76888889999999,-119.24611110000001
22995,"Delano, MN",1700.0,45.0419444,-93.7888889
23041,"Delavan, WI",2692.0,42.633055600000006,-88.64361109999999
23095,"Delhi, LA",2908.3333333333007,32.4575,-91.4930556
23102,"Delhi, NY",28526.0,42.2780556,-74.91638890000002
23122,"Dell Rapids, SD",20318.8333333333,43.826111100000006,-96.7058333
23149,"Delphi, IN",2375.0,40.5875,-86.675
23176,"Delphos, OH",1841.25,40.8433333,-84.3416667
23230,"Delta, CO",2750.0,38.7422222,-108.06833329999999
23257,"Delta, OH",2550.0,41.5736111,-84.00527779999999
23284,"Delta, UT",8966.6666666667,39.3522222,-112.5763889
23311,"Deltona, FL",92097.1875,28.900277799999998,-81.26388890000001
23338,"Deming, NM",2550.0,32.2686111,-107.75805559999999
23365,"Demopolis, AL",9227.8095238095,32.5175,-87.8363889
23419,"Denison, IA",900.0,42.0177778,-95.355
23446,"Denmark, SC",65191.6666666667,33.3225,-81.1425
23513,"Denton Southwest, TX",41460.0,33.214841,-97.13306800000001
23500,"Denton--Lewisville, TX",41460.0,33.046111100000005,-96.9938889
23473,"Denton, MD",122361.3125,38.88444439999999,-75.8275
23554,"Denver City, TX",3276.5,26.3327778,-97.4391667
23527,"Denver--Aurora, CO",13720.0,39.7294444,-104.83138890000001
23635,"DeQuincy, LA",7940.5714285714,30.4502778,-93.4330556
23662,"DeRidder, LA",1438.75,30.8461111,-93.2888889
23689,"Dermott, AR",2937.2,33.5252778,-91.4358333
23743,"Des Moines, IA",36386.5625,41.60055560000001,-93.60888890000001
23716,"Desert Hot Springs, CA",3151.0,41.1463889,-121.0375
23851,"Detroit Lakes, MN",3533.3333333333007,46.8172222,-95.845
23824,"Detroit, MI",52958.3333333333,42.33138889999999,-83.0458333
23878,"Devils Lake, ND",3533.3333333333007,48.112777799999996,-98.8647222
23905,"Devine, TX",50783.3333333333,29.1397222,-98.905
23959,"DeWitt, AR",14883.333333333301,34.292877000000004,-91.337899
24013,"Dexter, MO",1955.0,36.7958333,-89.95777779999999
24040,"Diamondhead, MS",1410.0,30.394444399999998,-89.3638889
24067,"Diboll, TX",1983.3333333332998,31.186944399999994,-94.7808333
24094,"Dickinson, ND",591.6666666666999,46.8791667,-102.7891667
24121,"Dickson, TN",9539.0,36.076944399999995,-87.3877778
24148,"Dilley, TX",50783.3333333333,28.6672222,-99.1702778
24175,"Dillon, MT",913.0,45.2163889,-112.6366667
24202,"Dillon, SC",1250.0,34.416388899999994,-79.37138890000001
24229,"Dimmitt, TX",1287.375,34.5508333,-102.31138890000001
24256,"Discovery Bay, CA",10606.25,37.9086111,-121.59916670000001
24283,"Dixon, CA",72659.7083333333,38.445555600000006,-121.82222220000001
24310,"Dixon, IL",7927.7777777778,41.83888889999999,-89.4794444
24329,"Dodge Center, MN",17447.5,44.0280556,-92.8544444
24337,"Dodge City, KS",600.0,37.7527778,-100.0166667
24364,"Dodgeville, WI",1200.0,42.9602778,-90.13
24391,"Donaldsonville, LA",4132.1951219512,30.100833299999998,-90.9927778
24418,"Donalsonville, GA",17884.0,31.0402778,-84.8791667
24433,"Dorr, MI",17107.2727272727,42.7252778,-85.7225
24445,"Dos Palos, CA",7955.0,36.9861111,-120.62555559999998
24472,"Dothan, AL",17884.0,31.223055600000006,-85.3905556
24499,"Douglas, AZ",23490.7619047619,31.344444399999997,-109.54472220000001
24526,"Douglas, GA",1875.0,31.508611100000003,-82.85
24539,"Douglas, MI",3020.0,42.6433333,-86.2005556
24553,"Douglas, WY",950.0,42.7597222,-105.38166670000001
24607,"Dover--Rochester, NH--ME",2300.0,43.188516,-70.886492
24580,"Dover, DE",6486.666666666701,39.158055600000004,-75.52472220000001
24634,"Dowagiac, MI",2712.5,41.9841667,-86.10861109999999
24646,"Downs, IL",4696.5,40.396944399999995,-88.8705556
24688,"Dryden, NY",5100.0,42.4908333,-76.2975
25093,"Du Quoin, IL",3060.0,38.0113889,-89.23611109999999
24715,"Dublin, GA",1875.0,32.5402778,-82.90388890000001
24769,"Dublin, TX",5073.4375,32.085,-98.3416667
24796,"DuBois, PA",9175.8333333333,41.121012,-78.758326
24823,"Dubuque, IA--IL",4451.052631579,42.500555600000006,-90.66444440000001
24850,"Duluth, MN--WI",7396.0,46.783333299999995,-92.10638890000001
24877,"Dumas, AR",14883.333333333301,33.8869444,-91.4916667
24904,"Dumas, TX",1050.0,35.86555560000001,-101.97277779999999
24931,"Duncan, OK",27552.3076923077,34.5022222,-97.9575
24958,"Dundee, MI",4866.6666666667,41.957222200000004,-83.6597222
25012,"Dunkirk--Fredonia, NY",4775.0,42.44,-79.3319444
24985,"Dunkirk, IN",633.3333333333001,40.3752778,-85.2094444
25025,"Dunlap, TN",3500.0,35.3713889,-85.3905556
25039,"Dunn, NC",4629.5454545454995,35.3061111,-78.6091667
25120,"Durand, MI",5833.333333333299,42.911944399999996,-83.98472220000001
25147,"Durango, CO",2750.0,37.2752778,-107.87944440000001
25174,"Durant, MS",1946.25,33.075,-89.8544444
25201,"Durant, OK",1195.0,33.993888899999995,-96.3705556
25228,"Durham, NC",14295.0,35.993888899999995,-78.8988889
25255,"Dwight, IL",4696.5,41.09444439999999,-88.425
25282,"Dyer, TN",1400.0,36.0666667,-88.9938889
25309,"Dyersburg, TN",1400.0,36.0344444,-89.3855556
25336,"Dyersville, IA",4451.052631579,42.484444399999994,-91.1227778
25363,"Eagar, AZ",2560.0,34.1111111,-109.29083329999999
25417,"Eagle Grove, IA",500.0,42.6641667,-93.9041667
25444,"Eagle Lake, TX",1691.6666666667002,29.589444399999994,-96.33333329999999
25480,"Eagle Mountain South, UT",8966.6666666667,40.314116999999996,-112.006882
25498,"Eagle Pass, TX",7578.0,28.708888899999998,-100.4991667
25390,"Eagle, CO",800.0,39.6552778,-106.82805559999998
25579,"Earlimart, CA",11370.125,35.8841667,-119.27138889999999
25598,"East Aurora, NY",12064.5,42.7538889,-76.70277779999999
25687,"East Liverpool, OH--WV--PA",11057.1428571429,40.6186111,-80.5775
25768,"East Palestine, OH",4158.3333333333,40.0494444,-84.7433333
25795,"East Prairie, MO",1955.0,36.7797222,-89.3855556
25802,"East Prospect, PA",42366.6666666667,40.904444399999996,-80.0466667
25813,"East Quincy, CA",6363.0,39.936944399999994,-120.94611110000001
25849,"East Stroudsburg, PA--NJ",3360.0,40.9866667,-75.195
25876,"East Tawas, MI",3880.0,44.279444399999996,-83.49027779999999
25903,"East Troy, WI",2692.0,42.7788889,-88.4447222
25660,"Eastland, TX",3325.0,32.40138889999999,-98.8172222
25714,"Eastman, GA",1875.0,32.1975,-83.17777779999999
25741,"Easton, MD",122361.3125,38.7741667,-76.0766667
25984,"Eaton Rapids, MI",10000.0,42.5091667,-84.6558333
25930,"Eaton, CO",4550.0,40.5302778,-104.7108333
25957,"Eaton, OH",3367.0,39.743888899999995,-84.6366667
26011,"Eatonton, GA",1125.0,33.326666700000004,-83.38861109999999
26024,"Eatonville, WA",151865.05,46.8675,-122.26527779999999
26038,"Eau Claire, WI",18778.4615384615,44.8113889,-91.4983333
26065,"Ebensburg, PA",46137.4166666667,40.485,-78.725
26092,"Eden, NC",2812.5,36.4883333,-79.7669444
26119,"Edenton, NC",2793.75,36.0447222,-76.6138889
26146,"Edgefield, SC",2625.0,33.789444399999994,-81.9297222
26173,"Edgerton, WI",1681.9230769230999,42.8352778,-89.0675
26200,"Edgewood, NM",26946.8125,35.0613889,-106.19083329999998
26227,"Edinboro, PA",6683.333333333299,41.8741667,-80.1319444
26254,"Edna, TX",2235.7142857143,28.9783333,-96.64583329999999
26275,"Edwards, CO",13720.0,39.645,-106.5936111
26308,"Effingham, IL",1550.0,39.12,-88.5433333
26345,"Eielson AFB, AK",3850.0,64.643095,-147.06382299999999
26389,"El Campo, TX",1691.6666666667002,29.196388899999995,-96.2694444
26416,"El Centro--Calexico, CA",7587.5,32.6788889,-115.49805559999999
26578,"El Dorado Springs, MO",10785.7142857143,37.8769444,-94.02111109999998
26470,"El Dorado, AR",1828.0,33.2075,-92.6661111
26524,"El Dorado, KS",9540.0,37.8172222,-96.8619444
27261,"El Paso de Robles (Paso Robles)--Atascadero, CA",6351.75,35.4894444,-120.66972220000001
27226,"El Paso, IL",4696.5,40.7391667,-89.01638890000001
27253,"El Paso, TX--NM",9305.7142857143,31.758611100000003,-106.4863889
27280,"El Reno, OK",27552.3076923077,35.5322222,-97.9547222
26362,"Elberton, GA",1000.0,34.1111111,-82.8672222
26443,"Eldon, MO",7360.0,38.3483333,-92.58138890000001
26551,"Eldorado at Santa Fe, NM",26946.8125,35.686944399999994,-105.93722220000001
26497,"Eldorado, IL",2286.0,37.8136111,-88.4380556
26632,"Electra, TX",600.0,34.029166700000005,-98.91861109999999
26659,"Elgin, TX",58266.6666666667,30.349444399999996,-97.37
26686,"Elizabeth City, NC",2793.75,36.294444399999996,-76.25138890000001
26750,"Elizabethtown--Radcliff, KY",750.0,37.8402778,-85.9491667
26713,"Elizabethtown, NC",1983.3333333332998,34.6291667,-78.6055556
26767,"Elk City, OK",600.0,35.411944399999996,-99.40388890000001
26794,"Elkhart, IN--MI",2040.0,43.3504,-84.5603
26821,"Elkhorn, WI",2692.0,42.6727778,-88.5444444
26848,"Elkin, NC",2100.0,36.2441667,-80.84861109999999
26875,"Elkins, WV",2836.25,38.9258333,-79.8469444
26912,"Elko New Market, MN",1700.0,44.5730556,-93.3533333
26902,"Elko, NV",840.0,40.8325,-115.76222220000001
26956,"Elkton, VA",2812.5,38.4077778,-78.62388890000001
26983,"Ellensburg, WA",5454.2857142857,46.9966667,-120.54666670000002
27010,"Ellenville, NY",3360.0,41.716944399999996,-74.39611109999998
27037,"Ellijay, GA",3207.1428571428996,34.6947222,-84.48222220000001
27064,"Ellsworth, KS",9540.0,38.7305556,-98.2277778
27070,"Ellsworth, ME",266514.0,44.5433333,-68.42
27076,"Ellsworth, WI",1702.8571428572,44.7322222,-92.4872222
27085,"Ellwood City, PA",3692.5,40.8616667,-80.2866667
27118,"Elmira, NY",5100.0,42.089722200000004,-76.8080556
27172,"Elmwood, IL",1550.0,40.7777778,-89.96638890000001
27199,"Eloy, AZ",23490.7619047619,32.7558333,-111.55416670000001
27290,"Elroy, TX",58266.6666666667,30.120555600000003,-97.635
27300,"Elverson, PA",14404.166666666699,40.1566667,-75.8330556
27307,"Elwood, IN",1225.0,40.2769444,-85.8419444
27334,"Ely, MN",7396.0,47.9033333,-91.86694440000001
27361,"Ely, NV",840.0,39.2475,-114.8877778
27372,"Emajagua, PR",3500.0,18.0025,-65.88305559999999
27380,"Emerald Bay, TX",1389.2857142857001,32.155157,-95.41301
27442,"Emmetsburg, IA",1003.75,43.112777799999996,-94.6827778
27469,"Emmett, ID",9711.1111111111,43.873611100000005,-116.49833329999998
27496,"Emmitsburg, MD--PA",4695.8333333333,39.70444439999999,-77.32722220000001
27523,"Emporia, KS",1126.0,38.4038889,-96.1813889
27550,"Emporia, VA",3112.5,36.6858333,-77.5427778
27577,"Emporium, PA",6520.0,41.5113889,-78.2355556
27592,"Enfield, NC",4764.6,36.180833299999996,-77.6669444
27604,"England, AR",14883.333333333301,34.5441667,-91.96888890000001
27631,"Enid, OK",3550.0,36.3955556,-97.8780556
27658,"Ennis, TX",78975.0,32.3291667,-96.625
27685,"Enterprise, AL",2700.0,31.315,-85.8552778
27712,"Ephraim, UT",8966.6666666667,39.3597222,-111.58555559999999
27739,"Ephrata, WA",2527.7777777778,47.3177778,-119.5525
27750,"Epping, NH",2300.0,43.033333299999995,-71.07472220000001
27766,"Erie, PA",15975.0,42.1291667,-80.0852778
27793,"Erwin, TN",2627.2,36.145,-82.4169444
27820,"Escalon, CA",10606.25,37.7975,-120.99555559999999
27847,"Escanaba, MI",1540.0,45.7452778,-87.0644444
27874,"Espanola, NM",26946.8125,35.991111100000005,-106.08
27885,"Esparto, CA",72659.7083333333,38.6922222,-122.0161111
27901,"Estacada, OR",43103.1818181818,45.2897222,-122.3325
27928,"Estes Park, CO",800.0,40.3772222,-105.5211111
27955,"Estherville, IA",1003.75,43.4016667,-94.8325
27991,"Estrella, AZ",123595.375,33.0011111,-112.41666670000001
28009,"Etowah, TN",1234.375,35.3233333,-84.525
28063,"Eudora, KS",2700.0,38.9433333,-95.0983333
28090,"Eufaula, AL--GA",2808.6666666666997,31.891111100000003,-85.1455556
28117,"Eugene, OR",3500.0,44.0522222,-123.08555559999999
28144,"Eunice, LA",2327.2727272726997,30.4941667,-92.4175
28171,"Eunice, NM",2800.0,32.4372222,-103.15861109999999
28198,"Eureka, CA",3151.0,40.8022222,-124.1625
28225,"Eureka, IL",2912.0,40.721388899999994,-89.2727778
28252,"Eureka, KS",1126.0,37.8238889,-96.2888889
28262,"Eureka, MO",6300.0,38.5096,-90.639
28306,"Evanston, WY",683.3333333333001,41.2683333,-110.9625
28333,"Evansville, IN--KY",2025.0,37.669000000000004,-84.6514
28360,"Evansville, WI",1681.9230769230999,42.7802778,-89.2991667
28387,"Evarts, KY",1675.625,36.8658333,-83.1905556
28414,"Everett, PA",46137.4166666667,40.0113889,-78.37361109999999
28431,"Evergreen, AL",2568.0,31.433333299999997,-86.9569444
28441,"Evergreen, CO",13720.0,39.6333333,-105.31666670000001
28468,"Everson, WA",2750.0,48.9202778,-122.3413889
28495,"Excelsior Springs, MO",60467.5,39.3391667,-94.2258333
28522,"Fabens, TX",20832.0,31.502222200000002,-106.15805559999998
28819,"Fair Haven, VT",3450.0,43.5947222,-73.26611109999999
28549,"Fairbanks, AK",3850.0,64.8377778,-147.7163889
28576,"Fairbury, IL",4696.5,40.7472222,-88.51472220000001
28603,"Fairbury, NE",1974.6,40.137222200000004,-97.1802778
28624,"Fairdale, PA",4283.5555555556,39.8869444,-79.9683333
28765,"Fairfield Glade, TN",2216.6666666667,35.74,-83.46222220000001
28782,"Fairfield Harbour, NC",3896.0,35.0763889,-76.96388890000001
28657,"Fairfield, CA",114990.576923077,38.249444399999994,-122.0388889
28711,"Fairfield, IA",2612.5,41.0086111,-91.9625
28684,"Fairfield, IL",2286.0,38.3788889,-88.35972220000001
28738,"Fairfield, TX",1260.0,31.724444399999996,-96.165
28846,"Fairmont, MN",1388.3333333332998,43.652222200000004,-94.4608333
28860,"Fairmont, NC",1983.3333333332998,34.4966667,-79.1144444
28873,"Fairmont, WV",2360.8,39.485,-80.14277779999999
28900,"Fairmount, IN",1225.0,40.4152778,-85.6505556
28954,"Fairview, TN",34474.0,35.981944399999996,-87.12138890000001
28981,"Fajardo, PR",3500.0,18.327777800000003,-65.6527778
29008,"Falfurrias, TX",10394.4285714286,27.226666700000003,-98.14388890000001
29035,"Fallon, NV",20514.8125,39.47361110000001,-118.7763889
29062,"Falls City, NE",1066.6666666667,40.0608333,-95.6016667
29089,"Fargo, ND--MN",3533.3333333333007,46.8772222,-96.78944440000001
29116,"Faribault, MN",17447.5,44.295,-93.26861109999999
29143,"Farmersville, TX",78975.0,33.1633333,-96.35972220000001
29170,"Farmerville, LA",4349.4166666667,32.7733333,-92.4055556
29224,"Farmington, ME",2300.0,44.67055560000001,-70.1516667
29251,"Farmington, MO",3058.75,37.7808333,-90.4216667
29265,"Farmington, NH",2300.0,43.3897222,-71.0655556
29278,"Farmington, NM",2750.0,36.728055600000005,-108.21805559999999
29305,"Farmville, NC",8460.6666666667,35.5952778,-77.58555559999999
29332,"Farmville, VA",4321.7647058823995,37.3019444,-78.3922222
29359,"Fayette, AL",9227.8095238095,33.6844444,-87.8308333
29413,"Fayette, MO",1425.0,39.1458333,-92.6836111
29494,"Fayetteville--Springdale--Rogers, AR--MO",8337.5,37.964253,-91.83183299999999
29440,"Fayetteville, NC",4629.5454545454995,35.0525,-78.87861109999999
29467,"Fayetteville, TN",3425.0,35.1519444,-86.57055559999999
29510,"Fearrington Village, NC",16425.0,35.803611100000005,-79.0905556
29521,"Federalsburg, MD",122361.3125,38.694166700000004,-75.7725
29548,"Fellsmere, FL",6000.0,27.7675,-80.6016667
29575,"Fergus Falls, MN",1459.0,46.283055600000004,-96.07722220000001
29602,"Fernandina Beach, FL",25723.125,30.669444399999996,-81.4627778
29656,"Fernley, NV",20514.8125,39.60805560000001,-119.25083329999998
29683,"Ferriday, LA",2173.0,31.63,-91.55444440000001
29698,"Filer, ID",2050.0,42.5702778,-114.60694440000002
29710,"Fillmore, CA",261570.416666667,34.3991667,-118.91722220000001
29737,"Findlay, OH",1625.0,41.0441667,-83.65
29764,"Firebaugh, CA",8432.0,36.8588889,-120.455
29775,"Firestone--Frederick, CO",800.0,40.099166700000005,-104.93666670000002
29791,"Fitzgerald, GA",1875.0,31.7147222,-83.25277779999999
29818,"Flagstaff, AZ",123595.375,35.1980556,-111.65055559999999
29845,"Flemingsburg, KY",2400.0,38.4222222,-83.73388890000001
29872,"Flint, MI",5833.333333333299,43.0125,-83.6875
29899,"Flora, IL",1550.0,38.6688889,-88.4855556
29953,"Florence, AL",7110.0,34.7997222,-87.6772222
29980,"Florence, AZ",123595.375,33.031388899999996,-111.3866667
30007,"Florence, CO",1550.0,38.3902778,-105.11805559999999
30034,"Florence, OR",3500.0,43.9827778,-124.0986111
30061,"Florence, SC",966.6666666666999,34.1952778,-79.7627778
30088,"Floresville, TX",50783.3333333333,29.133333299999997,-98.1558333
30115,"Florida--Imb_ry--Barceloneta, PR",5600.0,18.4525,-66.5388889
30142,"Floydada, TX",1287.375,33.984444399999994,-101.33722220000001
30171,"Foley, AL",6945.0,30.406388899999996,-87.6836111
30196,"Folkston, GA",4100.8,30.830277799999998,-82.01
30223,"Fond du Lac, WI",123220.0,43.773055600000006,-88.4469444
30250,"Fordyce, AR",14883.333333333301,33.8136111,-92.41277779999999
30304,"Forest City, IA",500.0,43.2625,-93.6369444
30331,"Forest City, NC",1400.0,35.3338889,-81.86527779999999
30358,"Forest Lake, MN",17447.5,45.2788889,-92.985
30277,"Forest, MS",13315.9090909091,32.3644444,-89.4741667
30385,"Forestville, CA",3712.3333333333003,38.47361110000001,-122.88916670000002
30412,"Forks, WA",3850.0,47.9505556,-124.38416670000001
30439,"Forney, TX",78975.0,32.7480556,-96.4716667
30466,"Forrest City, AR",1539.75,35.008055600000006,-90.7897222
30493,"Forsyth, GA",4840.0,33.0341667,-83.9383333
30520,"Forsyth, MO",4780.0,36.685,-93.11972220000001
30547,"Fort Atkinson, WI",2050.0,42.9288889,-88.83694440000001
30574,"Fort Bragg, CA",3712.3333333333003,39.4458333,-123.80416670000001
30601,"Fort Branch, IN",13915.2608695652,38.2511111,-87.58111109999999
30628,"Fort Collins, CO",800.0,40.5852778,-105.08388889999999
30655,"Fort Defiance, AZ--NM",2560.0,35.7444444,-109.07583329999999
30682,"Fort Dodge, IA",500.0,42.4975,-94.1677778
30736,"Fort Irwin, CA",10606.25,37.396944399999995,-120.84888889999999
30748,"Fort Leonard Wood, MO",5816.666666666701,39.951666700000004,-94.4530556
30755,"Fort Lupton, CO",4550.0,40.0847222,-104.8125
30763,"Fort Madison, IA--IL",2187.5,40.6297222,-91.315
30790,"Fort Meade, FL",1593.0,27.751944399999996,-81.8019444
30817,"Fort Morgan, CO",1550.0,37.3277778,-106.01944440000001
30844,"Fort Payne, AL",1600.0,34.444166700000004,-85.7197222
30858,"Fort Plain, NY",28526.0,42.931388899999995,-74.6230556
30871,"Fort Polk, LA",2100.0,31.046388899999997,-93.20527779999999
30898,"Fort Scott, KS",10785.7142857143,37.839722200000004,-94.7080556
30925,"Fort Smith, AR--OK",1828.0,33.1355556,-92.65
30952,"Fort Stockton, TX",2800.0,30.893888899999997,-102.8788889
31033,"Fort Valley, GA",4840.0,32.553611100000005,-83.8875
31060,"Fort Walton Beach--Navarre--Wright, FL",7695.818181818199,30.455555600000004,-86.6383333
31087,"Fort Wayne, IN",1266.6666666667,39.8877778,-84.9255556
30979,"Fortuna, CA",3151.0,40.5983333,-124.1561111
31114,"Fostoria, OH",1730.0,41.15694439999999,-83.4169444
31150,"Four Corners, FL",12025.0,27.9158333,-82.72972220000001
31158,"Four Corners, MT",2466.6666666667,45.6297222,-111.1852778
31168,"Fowlerville, MI",10000.0,42.6605556,-84.0730556
31195,"Frankenmuth, MI",6756.0,43.3316667,-83.7380556
31222,"Frankfort, IN",2375.0,40.279444399999996,-86.5108333
31249,"Frankfort, KY",2762.5,38.2008333,-84.8733333
31411,"Franklin (Venango County), PA",1500.0,41.397836,-79.83144399999999
31450,"Franklin--Highland Lake, NJ",300105.0,41.1766667,-74.4569444
31276,"Franklin, KY",34474.0,36.7222222,-86.57722220000001
31303,"Franklin, LA",1829.0,29.795833299999998,-91.50138890000001
31384,"Franklin, NC",1800.0,35.1822222,-83.3816667
31330,"Franklin, NH",2300.0,43.444166700000004,-71.6477778
31438,"Franklin, VA",3100.0,36.6775,-76.92277779999999
31465,"Franklinton, LA",1312.5,30.846944399999995,-90.1530556
31478,"Fraser, CO",800.0,39.945,-105.81666670000001
31492,"Frazier Park, CA",38568.6923076923,34.8227778,-118.94388889999999
31519,"Frederick, MD",4695.8333333333,39.4141667,-77.4108333
31546,"Frederick, OK",600.0,34.39194439999999,-99.0180556
31573,"Fredericksburg, TX",2400.0,30.275,-98.8716667
31600,"Fredericksburg, VA",3500.0,38.30305560000001,-77.4608333
31627,"Fredericktown, MO",3058.75,37.5597222,-90.29388890000001
31681,"Freeport, IL",7927.7777777778,42.2966667,-89.6211111
31735,"Fremont, MI",5385.7142857143,43.4675,-85.9419444
31762,"Fremont, NE",1482.75,41.4333333,-96.4977778
31789,"Fremont, OH",1416.0,41.3502778,-83.1219444
31843,"Fresno, CA",32460.75,36.7477778,-119.77138889999999
31870,"Friona, TX",1050.0,34.6416667,-102.72361109999999
31897,"Fritch, TX",1050.0,35.6397222,-101.6027778
31924,"Front Royal, VA",4200.0,38.9180556,-78.1947222
31978,"Frostproof, FL",4224.0833333333,27.745555600000003,-81.5308333
32032,"Fulton, KY--TN",1400.0,36.5041667,-88.8741667
32086,"Fulton, MO",1718.1818181817996,38.8466667,-91.9477778
32059,"Fulton, MS",7556.25,34.273888899999996,-88.4091667
32113,"Gadsden, AL",5390.6666666667,34.014166700000004,-86.0066667
32140,"Gaffney, SC",1053.8461538462,35.0716667,-81.65
32167,"Gainesville, FL",11296.0625,29.651388899999997,-82.325
32194,"Gainesville, GA",3625.0,34.2977778,-83.8241667
32221,"Gainesville, TX",41460.0,33.6258333,-97.13305559999999
32248,"Galax, VA",2100.0,36.66111110000001,-80.9241667
32275,"Galena, IL",4451.052631579,42.4166667,-90.4288889
32302,"Galena, KS--MO",5455.88,37.0758333,-94.6394444
32329,"Galesburg, IL",525.0,40.9477778,-90.3711111
32356,"Galion, OH",2373.0,40.733611100000005,-82.79
32383,"Galliano--Larose--Cut Off, LA",7025.0,29.5425,-90.3380556
32437,"Gallup, NM",2560.0,35.5280556,-108.74194440000001
32451,"Galt, CA",72659.7083333333,38.2547222,-121.2988889
32491,"Galveston, TX",69809.7222222222,29.301111100000004,-94.7975
32518,"Garden City, KS",1050.0,37.9716667,-100.87222220000001
32572,"Gardnerville Ranchos, NV",20514.8125,38.8883333,-119.74027779999999
32599,"Garner, IA",500.0,43.1025,-93.6016667
32626,"Garnett, KS",2700.0,38.28055560000001,-95.2416667
32637,"Garrettsville, OH",3391.5,41.2841667,-81.0966667
32653,"Gastonia, NC--SC",3430.0,35.2619444,-81.1875
32707,"Gatesville, TX",5073.4375,31.435,-97.7436111
32720,"Gautier, MS",1410.0,30.385555600000004,-88.6116667
32734,"Gaylord, MI",3185.0,45.0275,-84.6747222
32761,"Geneseo, IL",33565.3333333333,41.4480556,-90.1541667
32788,"Geneseo, NY",35146.1538461538,42.7958333,-77.8172222
32815,"Geneva, AL",2700.0,31.032777799999998,-85.8638889
32842,"Geneva, NY",35146.1538461538,42.868888899999995,-76.9780556
32850,"Geneva, OH",7168.75,41.805,-80.9483333
32869,"Genoa, IL",7927.7777777778,42.0972222,-88.69277779999999
32896,"Genoa, OH",14984.333333333301,41.518055600000004,-83.3591667
32950,"Georgetown, DE",6486.666666666701,38.69,-75.3858333
32977,"Georgetown, KY",750.0,38.2097222,-84.55888890000001
33004,"Georgetown, OH",25050.0,38.8644444,-83.9041667
33031,"Georgetown, SC",966.6666666666999,33.3766667,-79.29472220000001
33166,"Gibson City, IL",2500.0,40.4652778,-88.3758333
33193,"Giddings, TX",1328.5714285714,30.1825,-96.93611109999999
33220,"Gillespie, IL",6300.0,39.1297222,-89.8194444
33247,"Gillette, WY",1150.0,44.2911111,-105.50166670000002
33274,"Gilman, IL",2500.0,40.7666667,-87.9922222
33301,"Gilmer, TX",5990.625,32.7286111,-94.9422222
33328,"Gilroy--Morgan Hill, CA",10606.25,37.1305556,-121.65333329999999
33355,"Girard, KS",10785.7142857143,37.5111111,-94.8377778
33409,"Gladwin, MI",3980.0,43.9808333,-84.48638890000001
33436,"Glasgow, KY",750.0,36.9958333,-85.9119444
33463,"Glasgow, MT",591.6666666666999,48.19694439999999,-106.63611110000001
33490,"Glencoe, MN",1190.0,44.7691667,-94.15138890000001
33517,"Glendive, MT",591.6666666666999,47.105277799999996,-104.71194440000001
33544,"Glennville, GA",1375.0,31.936388899999997,-81.9286111
33598,"Glens Falls, NY",3450.0,43.3094444,-73.6444444
33612,"Glenville, WV",13493.428571428602,38.9341667,-80.8377778
33652,"Glenwood Springs, CO",1550.0,39.5505556,-107.3241667
33625,"Glenwood, IA",900.0,41.046944399999994,-95.7422222
33635,"Glenwood, MD",3500.0,39.2875,-77.0283333
33679,"Globe, AZ",23490.7619047619,33.3941667,-110.7858333
33695,"Gloucester Courthouse, VA",3100.0,37.4097222,-76.5269444
33706,"Glouster, OH",2000.0,39.5030556,-82.0847222
33733,"Gloversville, NY",28526.0,43.0527778,-74.3441667
33749,"Gold Beach, OR",3500.0,42.4075,-124.42055559999999
33760,"Golden Beach, MD",3500.0,38.4897222,-76.6825
33798,"Golden Gate Estates, FL",16333.333333333301,26.22962,-81.63257
33787,"Goldendale, WA",5454.2857142857,45.8208333,-120.82055559999999
33814,"Goldsboro, NC",3602.5,35.3847222,-77.9930556
33841,"Gonzales, CA",10606.25,36.506666700000004,-121.44333329999999
33868,"Gonzales, TX",58266.6666666667,29.501388899999995,-97.45222220000001
33895,"Gooding, ID",2050.0,42.938888899999995,-114.71222220000001
33922,"Goodland, KS",1064.6666666667,39.3508333,-101.7097222
33938,"Goodrich, MI",5833.333333333299,42.9169444,-83.5063889
34003,"Gothenburg, NE",1064.6666666667,40.929444399999994,-100.16027779999999
34030,"Gouverneur, NY",500.0,44.3366667,-75.4633333
34057,"Gowanda, NY",37498.285714285696,42.463055600000004,-78.93611109999999
34072,"Graceville, FL",17884.0,30.956666700000003,-85.5166667
34084,"Grafton, ND",3533.3333333333007,48.4122222,-97.41027779999999
34111,"Grafton, WV",2360.8,39.3408333,-80.0191667
34138,"Graham, TX",3150.0,33.106944399999996,-98.5891667
34151,"Gramercy--Lutcher, LA",4132.1951219512,30.0402778,-90.69888890000001
34165,"Granbury, TX",3150.0,32.4419444,-97.79388890000001
34192,"Grand Bay, AL",45324.0909090909,30.476111100000004,-88.34222220000001
34229,"Grand Forks AFB, ND",3533.3333333333007,47.95252,-97.382449
34219,"Grand Forks, ND--MN",3533.3333333333007,47.925277799999996,-97.0325
34246,"Grand Island, NE",2941.8,40.925,-98.3416667
34273,"Grand Junction, CO",2750.0,39.063888899999995,-108.55
34300,"Grand Rapids, MI",17107.2727272727,42.963333299999995,-85.6680556
34327,"Grand Rapids, MN",2010.0,47.2372222,-93.53
34354,"Grand Saline, TX",2400.0,30.7222222,-99.5530556
34381,"Grandview, WA",5660.0,46.2511111,-119.90055559999999
34397,"Granger, WA",5454.2857142857,46.3422222,-120.1861111
34408,"Grangerland, TX",69809.7222222222,30.2525,-95.3291667
34435,"Grangeville, ID",1353.3333333333,45.9266667,-116.1213889
34462,"Granite Falls, MN",1130.0,44.81,-95.5452778
34470,"Granite Falls, WA",2750.0,48.084166700000004,-121.9675
34478,"Granite Shoals, TX",2400.0,30.588888899999997,-98.3836111
34516,"Grants Pass, OR",3500.0,42.4391667,-123.32722220000001
34489,"Grants, NM",2200.0,35.1472222,-107.85083329999999
34543,"Grantsville, UT",8966.6666666667,40.6,-112.46361110000001
34554,"Grantville, GA",2750.0,33.2347222,-84.8358333
34570,"Granville, NY--VT",3450.0,43.4077778,-73.26
34597,"Grass Valley, CA",72659.7083333333,39.2191667,-121.06
34613,"Gray, GA",1125.0,33.00944439999999,-83.53388890000001
34624,"Grayling, MI",3185.0,44.6613889,-84.71472220000001
34651,"Grayson, KY",2400.0,38.3325,-82.9486111
34678,"Great Barrington, MA",6766.666666666701,42.1958333,-73.3625
34705,"Great Bend, KS",9540.0,38.3644444,-98.7644444
34759,"Great Falls, MT",1820.0,47.5002778,-111.3
34786,"Greeley, CO",4550.0,40.423333299999996,-104.70861109999998
34813,"Green Bay, WI",5908.333333333299,44.5191667,-88.0197222
35029,"Green Forest, AR",4780.0,36.3352778,-93.4358333
35083,"Green River, WY",1240.0,41.528611100000006,-109.46555559999999
34826,"Greenbrier, AR",11976.666666666699,35.2338889,-92.3875
34840,"Greencastle, IN",500.0,39.6444444,-86.8647222
34894,"Greeneville, TN",1298.1428571428999,36.16305560000001,-82.83111109999999
34921,"Greenfield, CA",7955.0,36.3208333,-121.2427778
34975,"Greenfield, MA",31689.0,42.5875,-72.6
35002,"Greenfield, OH",2231.8181818182,39.351944399999994,-83.3827778
35137,"Greensboro, GA",1125.0,33.5755556,-83.1825
35164,"Greensboro, NC",11800.0,36.0725,-79.79222220000001
35191,"Greensburg, IN",1434.2857142857001,39.3372222,-85.48361109999999
35218,"Greentown, IN",3033.3333333333007,40.478055600000005,-85.9666667
35272,"Greenville, AL",10069.6666666667,31.829444399999996,-86.6177778
35299,"Greenville, IL",983.3333333333001,38.8922222,-89.41305559999999
35326,"Greenville, MI",1864.2857142857001,43.1775,-85.25277779999999
35353,"Greenville, MS",2937.2,33.41,-91.0616667
35380,"Greenville, NC",8460.6666666667,35.6125,-77.3666667
35407,"Greenville, OH",4158.3333333333,40.1027778,-84.63305559999999
35434,"Greenville, PA",6683.333333333299,41.404444399999996,-80.39138890000001
35461,"Greenville, SC",1800.0,34.8525,-82.3941667
35488,"Greenville, TX",1195.0,33.1383333,-96.1105556
35515,"Greenwich, NY",3450.0,43.0905556,-73.4991667
35542,"Greenwood, AR",20325.1875,35.2155556,-94.2555556
35569,"Greenwood, MS",1946.25,33.5161111,-90.17944440000001
35596,"Greenwood, SC",2625.0,34.1952778,-82.1619444
35623,"Grenada, MS",1602.75,33.76888889999999,-89.8083333
35677,"Gridley, CA",6363.0,39.3638889,-121.6925
35690,"Grifton, NC",3096.4444444445007,35.3725,-77.43777779999999
35704,"Grinnell, IA",36386.5625,41.743055600000005,-92.7222222
35716,"Grissom AFB, IN",3033.3333333333007,40.661823,-86.144649
35731,"Groesbeck, TX",8230.0,31.524166700000002,-96.53361109999999
35758,"Grottoes, VA",2812.5,38.2672222,-78.82611109999999
35812,"Grove City, PA",1500.0,41.1577778,-80.08888890000001
35785,"Grove, OK",5455.88,36.593611100000004,-94.76888890000001
35839,"Guadalupe, CA",6351.75,34.9716667,-120.57083329999999
35866,"Guayama, PR",3500.0,17.9861111,-66.1141667
35893,"Guerneville, CA",3712.3333333333003,38.5019444,-122.995
35920,"Gulfport, MS",1410.0,30.3672222,-89.0927778
35974,"Gun Barrel City, TX",3276.5,26.3327778,-97.4391667
35987,"Gun Lake, MI",3483.75,43.851944399999994,-85.00527779999999
36001,"Gunnison, CO",1550.0,38.5458333,-106.9247222
36028,"Gunnison, UT",8966.6666666667,39.1552778,-111.8175
36055,"Gustine, CA",10606.25,37.2577778,-120.9977778
36082,"Guthrie, OK",27552.3076923077,35.8788889,-97.425
36109,"Guymon, OK",1050.0,36.6827778,-101.48111109999999
36136,"Gypsum, CO",800.0,39.646944399999995,-106.9511111
36190,"Hagerstown, MD--WV--PA",4695.8333333333,39.6416667,-77.72027779999999
36217,"Hailey, ID",2050.0,43.519722200000004,-114.31444440000001
36231,"Haleiwa--Waialua--Pupukea, HI",114990.576923077,21.6641667,-158.0536111
36244,"Haleyville, AL",7110.0,34.226388899999996,-87.62138890000001
36271,"Half Moon Bay, CA",114990.576923077,37.4636111,-122.4275
36298,"Halls, TN",1455.7142857142999,35.875555600000006,-89.39611109999998
36325,"Hallsville, TX",5990.625,32.5041667,-94.57388890000001
36352,"Hamburg, AR",2937.2,33.228055600000005,-91.7975
36396,"Hamilton, AL",7556.25,34.1422222,-87.98861109999999
36406,"Hamilton, MT",2185.0,46.2469444,-114.15944440000001
36433,"Hamilton, NY",12064.5,42.826944399999995,-75.545
36460,"Hamilton, TX",5073.4375,31.703611100000003,-98.12361109999999
36514,"Hammond, LA",2185.6666666667,30.504166700000003,-90.4611111
36541,"Hammonton, NJ",4250.0,39.6363889,-74.80277779999999
36568,"Hampshire, IL",7927.7777777778,42.097777799999996,-88.5302778
36585,"Hampstead, NC",4200.0,34.3675,-77.7108333
36622,"Hampton, IA",500.0,42.741944399999994,-93.20222220000001
36649,"Hampton, SC",4800.0,32.8777778,-81.12777779999999
36676,"Hanceville, AL",3980.0,34.0605556,-86.7675
36703,"Hanford, CA",6351.75,36.3275,-119.6447222
36730,"Hannibal, MO",2996.1538461539008,39.7083333,-91.3583333
36784,"Hanover, PA",14705.8666666667,39.8005556,-76.9833333
36798,"Hardeeville, SC",12150.0,32.286944399999996,-81.0808333
36811,"Hardin, MT",9423.3333333333,45.7325,-107.6113889
36823,"Hardyston Township West, NJ",3360.0,41.113704,-74.554051
36838,"Harlan, IA",900.0,41.6530556,-95.3252778
36865,"Harlan, KY",1675.625,36.84305560000001,-83.3219444
36878,"Harlem, GA",2625.0,33.414444399999994,-82.31277779999999
36892,"Harlingen, TX",3276.5,26.1902778,-97.6958333
36919,"Harrah, OK",1460.0,35.4894444,-97.1633333
36946,"Harriman--Kingston--Rockwood, TN",1860.0,35.86555560000001,-84.685
36973,"Harrington, DE",6486.666666666701,38.9236111,-75.5780556
37000,"Harrisburg, IL",3255.4545454546,37.7383333,-88.5405556
37054,"Harrisburg, OR",3500.0,44.2741667,-123.16944440000002
37081,"Harrisburg, PA",20275.0,40.273611100000004,-76.88472220000001
37091,"Harrisburg, SD",20318.8333333333,43.431388899999995,-96.6969444
37108,"Harrison, AR",4780.0,36.2297222,-93.1075
37135,"Harrison, MI",3483.75,44.0191667,-84.7994444
37145,"Harrison, OH--IN",25050.0,39.2619444,-84.82
37162,"Harrisonburg, VA",2812.5,38.4494444,-78.86916670000001
37189,"Harrisonville, MO",60467.5,38.6533333,-94.34861109999999
37216,"Harrodsburg, KY",2025.0,37.762222200000004,-84.8433333
37232,"Hart, MI",1837.5,43.6983333,-86.3638889
37324,"Hartford City, IN",1225.0,40.451111100000006,-85.37
37243,"Hartford, CT",30846.875,41.763611100000006,-72.6855556
37378,"Hartshorne, OK",1575.0,34.845,-95.55722220000001
37405,"Hartsville, SC",966.6666666666999,34.3738889,-80.0736111
37432,"Hartwell, GA",1000.0,34.3527778,-82.93222220000001
37459,"Harvard, IL",2692.0,42.4222222,-88.61361109999999
37486,"Haskell, TX",1680.0,33.1575,-99.7333333
37513,"Hastings, MI",2466.6666666667,42.6458333,-85.2908333
37540,"Hastings, MN",17447.5,44.743333299999996,-92.8522222
37567,"Hastings, NE",1974.6,40.586111100000004,-98.3880556
37594,"Hattiesburg, MS",3753.9285714285998,31.326944399999995,-89.2902778
37621,"Havana, FL",7500.0,30.623611100000005,-84.4147222
37648,"Havana, IL",1550.0,40.3,-90.0608333
37675,"Havelock, NC",3267.4285714285998,34.8788889,-76.9016667
37702,"Havre, MT",1820.0,48.55,-109.68333329999999
37716,"Hawaiian Paradise Park, HI",114990.576923077,19.5933333,-154.97305559999998
37729,"Hawkinsville, GA",4840.0,32.2836111,-83.4722222
37756,"Hawthorne, NV",20514.8125,38.5247222,-118.6236111
37783,"Hays, KS",1687.5,38.8791667,-99.32638890000001
37810,"Hayti, MO",3000.0,36.233611100000005,-89.7494444
37823,"Hayward, WI",7396.0,46.0130556,-91.4844444
37837,"Hazard, KY",8190.3529411765,37.249444399999994,-83.19333329999999
37864,"Hazel Green, AL",10670.0,34.9322222,-86.5719444
37891,"Hazlehurst, GA",1875.0,31.869444399999995,-82.5944444
37918,"Hazlehurst, MS",1140.0,31.8602778,-90.39583329999999
37945,"Hazleton, PA",2904.0,40.9583333,-75.975
37959,"Headland, AL",17884.0,31.351111100000004,-85.34222220000001
37972,"Hearne, TX",5600.0,30.878333299999998,-96.5927778
37999,"Heavener, OK",20325.1875,34.889166700000004,-94.60055559999999
38026,"Hebbronville, TX",7578.0,27.306388899999998,-98.6780556
38080,"Heber Springs, AR",1350.0,35.4913889,-92.03111109999999
38053,"Heber, UT",1820.0,40.507009000000004,-111.41332299999999
38134,"Hebron, IN",140155.083333333,41.318611100000005,-87.2002778
38172,"Helena-West Helena, AR",1539.75,34.529444399999996,-90.5916667
38161,"Helena, MT",1620.0,46.5927778,-112.03527779999999
38215,"Hemet, CA",62375.0,33.7475,-116.9711111
38242,"Hempstead, TX",1328.5714285714,30.0972222,-96.0780556
38269,"Henderson, NC",944.0,36.32944439999999,-78.39944440000001
38296,"Henderson, TN",2662.5,35.4391667,-88.64138890000001
38323,"Henderson, TX",2922.5,32.1530556,-94.7991667
38350,"Henrietta, TX",3150.0,33.8172222,-98.195
38404,"Henryetta, OK",1575.0,35.4397222,-95.9816667
38431,"Hereford, TX",1050.0,34.815,-102.3972222
38445,"Heritage Lake, IN",500.0,39.720371,-86.72026
38485,"Hermiston, OR",5660.0,45.8405556,-119.28833329999999
38566,"Hesston, KS",9540.0,38.1383333,-97.4311111
38580,"Heyworth, IL",4696.5,40.3133333,-88.97361109999999
38593,"Hiawatha, KS",1066.6666666667,39.8525,-95.5355556
38620,"Hibbing, MN",7396.0,47.4272222,-92.9375
38647,"Hickory, NC",7216.25,35.73305560000001,-81.34138890000001
38674,"Hicksville, OH",1500.0,41.2930556,-84.7619444
38713,"Hidden Valley Lake, CA",3712.3333333333003,38.8080556,-122.55722220000001
38728,"Higginsville, MO",1500.0,39.0725,-93.7169444
38809,"High Point, NC",11800.0,35.955555600000004,-80.0055556
38823,"High Springs, FL",11296.0625,29.8266667,-82.5969444
38794,"Highland Oaks, TX",50783.3333333333,28.608611100000005,-98.03138890000001
38755,"Highland, IL",6300.0,38.7394444,-89.67111109999999
38863,"Hillsboro, IL",2150.0,39.16111110000001,-89.4936111
38890,"Hillsboro, KS",9540.0,38.351944399999994,-97.2041667
38903,"Hillsboro, MO",3058.75,38.2322222,-90.56277779999999
38917,"Hillsboro, OH",2231.8181818182,39.2022222,-83.6116667
38944,"Hillsboro, TX",8230.0,32.0108333,-97.1297222
38971,"Hillsborough, NH",2300.0,43.1141667,-71.89972220000001
38998,"Hillsdale, MI",1466.6666666667002,41.92,-84.6305556
39025,"Hilmar-Irwin, CA",10606.25,37.396944399999995,-120.84888889999999
39052,"Hilo, HI",114990.576923077,19.729722199999998,-155.09
39079,"Hilton Head Island, SC",4800.0,32.216111100000006,-80.75277779999999
39133,"Hinesville, GA",1375.0,31.8466667,-81.59611109999999
39160,"Hinton, WV",4766.6666666667,37.673888899999994,-80.8894444
39187,"Hobart, OK",600.0,35.029444399999996,-99.0927778
39214,"Hobbs, NM",2800.0,32.7025,-103.1355556
39241,"Hodgenville, KY",750.0,37.5738889,-85.74
39268,"Hohenwald, TN",7110.0,35.5477778,-87.5519444
39295,"Hoisington, KS",9540.0,38.518055600000004,-98.7777778
39322,"Holbrook, AZ",2560.0,34.902222200000004,-110.1575
39349,"Holden Beach, NC",4200.0,33.9133333,-78.3041667
39376,"Holdenville, OK",1460.0,35.0802778,-96.3988889
39403,"Holdrege, NE",1687.5,40.4402778,-99.3694444
39416,"Holiday Shores, IL",6300.0,38.921944399999994,-89.9405556
39430,"Holland, MI",3020.0,42.7875,-86.10888890000001
39457,"Hollandale, MS",2937.2,33.1688889,-90.85388890000002
39511,"Hollister, CA",10606.25,36.8525,-121.40055559999999
39524,"Holloman AFB, NM",3333.3333333333007,32.855833000000004,-106.11398999999999
39565,"Holly Springs, MS",4020.0,34.7675,-89.4486111
39538,"Holly, MI",5833.333333333299,42.7919444,-83.62777779999999
39592,"Holton, KS",5560.75,39.4652778,-95.73611109999999
39619,"Holtville, CA",7587.5,32.811111100000005,-115.37944440000001
39646,"Homedale, ID",9711.1111111111,43.6177778,-116.9327778
39673,"Homer, LA",1828.0,32.7916667,-93.0555556
39700,"Homerville, GA",2045.0,31.036388899999995,-82.74722220000001
39712,"Homesteads Addition, TX",69809.7222222222,29.543567,-95.767763
39727,"Hominy, OK",14163.1578947368,36.4141667,-96.395
39758,"Homosassa Springs--Beverly Hills--Citrus Springs, FL",3300.0,28.9972222,-82.4708333
39781,"Hondo, TX",50783.3333333333,29.3472222,-99.14111109999999
39808,"Honea Path, SC",1800.0,34.446388899999995,-82.3916667
39821,"Honeoye Falls, NY",35146.1538461538,42.9522222,-77.5905556
39835,"Honesdale, PA",39262.5,41.576666700000004,-75.25916670000001
39862,"Honokaa, HI",114990.576923077,20.082777800000002,-155.4725
39916,"Hood River, OR--WA",43103.1818181818,45.705555600000004,-121.52027779999999
39943,"Hooks, TX",953.3333333333001,33.466111100000006,-94.2883333
39970,"Hoopeston, IL",1277.0,40.4672222,-87.6683333
39997,"Hoosick Falls, NY",5189.0833333333,42.9011111,-73.35194440000001
40024,"Hope, AR",1633.3333333332998,33.6669444,-93.59138890000001
40078,"Hopkinsville, KY",9539.0,36.86555560000001,-87.48861109999999
40105,"Horicon, WI",123220.0,43.4513889,-88.6311111
40132,"Hornell, NY",35146.1538461538,42.3277778,-77.6613889
40186,"Horse Cave, KY",750.0,37.179444399999994,-85.9069444
40189,"Horseshoe Bay, TX",2400.0,30.537222200000002,-98.35472220000001
40267,"Hot Springs Village, AR",1828.0,33.2633333,-93.0538889
40213,"Hot Springs, AR",1633.3333333332998,34.5036111,-93.055
40240,"Hot Springs, SD",9588.1111111111,43.4316667,-103.4738889
40321,"Houghton Lake, MI",3483.75,43.851944399999994,-85.00527779999999
40294,"Houghton, MI",2956.25,47.1219444,-88.5688889
40348,"Houlton, ME",2300.0,46.1261111,-67.8408333
40375,"Houma, LA",4132.1951219512,29.595555600000004,-90.7194444
40402,"Houston, MS",7556.25,33.8983333,-88.9991667
40429,"Houston, TX",69809.7222222222,29.763055600000005,-95.3630556
40456,"Houtzdale, PA",12340.416666666699,40.825,-78.3513889
40537,"Hudson, NY",28526.0,42.2527778,-73.79138890000002
40547,"Hudson, WI--MN",17447.5,44.9747222,-92.7566667
40564,"Hugo, OK",1195.0,34.0105556,-95.5094444
40591,"Hugoton, KS",1050.0,37.175277799999996,-101.3491667
40618,"Humboldt, IA",500.0,42.720833299999995,-94.215
40645,"Humboldt, TN",2662.5,35.8197222,-88.9158333
40672,"Huntingburg, IN",3177.375,38.298888899999994,-86.955
40699,"Huntingdon, PA",3200.125,40.4847222,-78.0105556
40726,"Huntington, IN",850.0,40.883055600000006,-85.4975
40753,"Huntington, WV--KY--OH",8274.3333333333,38.4191667,-82.4452778
40780,"Huntsville, AL",10670.0,34.730277799999996,-86.5861111
40807,"Huntsville, TX",2275.0,30.7233333,-95.5505556
40834,"Huron, CA",6351.75,36.2027778,-120.10194440000001
40861,"Huron, SD",1977.5,44.3633333,-98.21388890000001
40888,"Hurricane, UT",3200.0,37.175277799999996,-113.28916670000001
40915,"Hutchinson, KS",9540.0,38.0608333,-97.92944440000001
40942,"Hutchinson, MN",1190.0,44.8877778,-94.3694444
40955,"Huxley, IA",36386.5625,41.8952778,-93.60055559999999
40969,"Idabel, OK",1195.0,33.8955556,-94.82611109999999
40996,"Idaho Falls, ID",2196.0,43.466666700000005,-112.03333329999998
41023,"Ilion--Herkimer, NY",28526.0,43.025555600000004,-74.98638890000001
41050,"Imlay City, MI",5833.333333333299,43.0247222,-83.07777779999999
41077,"Immokalee, FL",22166.6666666667,26.418333299999997,-81.4175
41100,"Incline Village, NV--CA",20514.8125,39.251388899999995,-119.97194440000001
41131,"Independence, IA",9709.3333333333,42.468611100000004,-91.8891667
41158,"Independence, KS",895.8,37.224166700000005,-95.7080556
41185,"Indiana, PA",8271.4285714286,40.6213889,-79.1527778
41212,"Indianapolis, IN",45355.0,39.7683333,-86.1580556
41239,"Indianola, IA",36386.5625,41.35805560000001,-93.55722220000001
41266,"Indianola, MS",1355.5,33.4508333,-90.655
41293,"Indianola, WA",151865.05,47.7472222,-122.52444440000001
41320,"Indiantown, FL",9263.3333333333,27.026944399999994,-80.4858333
41347,"Indio--Cathedral City, CA",62375.0,33.7797222,-116.46444440000002
41360,"Ingleside--Aransas Pass, TX",10394.4285714286,27.9091667,-97.14972220000001
41374,"Interlachen, FL",2250.0,29.623611100000005,-81.8905556
41401,"International Falls, MN",1761.25,48.601111100000004,-93.4108333
41482,"Iola, KS",10785.7142857143,37.9244444,-95.39972220000001
41509,"Ione, CA",72659.7083333333,38.3527778,-120.93166670000001
41536,"Ionia, MI",1864.2857142857001,42.9872222,-85.0711111
41590,"Iowa City, IA",2612.5,41.66111110000001,-91.53
41617,"Iowa Falls, IA",500.0,42.5225,-93.25111109999999
41644,"Iowa Park, TX",600.0,33.9513889,-98.6683333
41563,"Iowa, LA",7940.5714285714,30.2366667,-93.01361109999999
41671,"Iron Mountain--Kingsford, MI--WI",1492.8571428572,45.835049,-88.066384
41698,"Iron River, MI",1492.8571428572,46.0927778,-88.6422222
41725,"Ironton, MO",3058.75,37.5972222,-90.6272222
41752,"Ironwood, MI--WI",19086.1764705882,46.4547222,-90.1708333
41779,"Irrigon, OR",5660.0,45.8958333,-119.49027779999999
41806,"Irvine, KY",750.0,37.7005556,-83.9738889
41833,"Ishpeming, MI",2062.5,46.4886111,-87.6675
41914,"Ithaca, NY",5100.0,42.4405556,-76.4969444
41941,"Itta Bena, MS",1946.25,33.495,-90.3197222
41995,"Jacksboro, TX",3150.0,33.2183333,-98.1583333
42439,"Jackson--Wellston, OH",739.0,39.1233333,-82.5330556
42022,"Jackson, AL",13817.2727272727,31.508888899999995,-87.8944444
42049,"Jackson, CA",10606.25,38.3488889,-120.77305559999999
42076,"Jackson, GA",19483.3333333333,33.294444399999996,-83.96611109999999
42103,"Jackson, KY",750.0,37.55305560000001,-83.3836111
42157,"Jackson, MI",2466.6666666667,42.2458333,-84.40138890000001
42184,"Jackson, MN",1003.75,43.6208333,-94.9883333
42211,"Jackson, MS",13315.9090909091,32.2986111,-90.18472220000001
42265,"Jackson, TN",2662.5,35.6144444,-88.81388890000001
42319,"Jackson, WY",630.0,43.48,-110.7616667
42346,"Jacksonville, FL",25723.125,30.331944399999998,-81.6558333
42373,"Jacksonville, IL",3000.0,39.7338889,-90.22888890000002
42400,"Jacksonville, NC",3896.0,34.7538889,-77.4305556
42427,"Jacksonville, TX",1389.2857142857001,31.963611100000005,-95.27027779999999
42454,"Jaffrey, NH",2300.0,42.813888899999995,-72.0236111
42508,"Jamestown, ND",3082.5,46.9105556,-98.7080556
42481,"Jamestown, NY",4775.0,42.0969444,-79.2355556
42535,"Jamestown, OH",5083.3333333333,39.658055600000004,-83.735
42562,"Janesville, WI",1681.9230769230999,42.6827778,-89.01861109999999
42616,"Jasper, AL",3980.0,33.8311111,-87.2775
42643,"Jasper, FL",2045.0,30.518055600000004,-82.9483333
42670,"Jasper, GA",2256.25,34.4677778,-84.4291667
42697,"Jasper, IN",3177.375,38.391388899999995,-86.9311111
42724,"Jasper, TN",3500.0,35.0741667,-85.62611109999999
42751,"Jasper, TX",1438.75,30.92,-93.99638890000001
42778,"Jayuya, PR",3000.0,18.2205556,-66.5919444
42832,"Jean Lafitte, LA",8726.6666666667,29.6666667,-90.1083333
42805,"Jeanerette, LA",16190.0,29.9108333,-91.6633333
42967,"Jefferson City, MO",7360.0,38.576666700000004,-92.1733333
42978,"Jefferson Township North, NJ",3360.0,41.002989,-74.55804499999999
42849,"Jefferson, GA",1000.0,34.116944399999994,-83.5725
42859,"Jefferson, IA",500.0,42.0152778,-94.3772222
42870,"Jefferson, NC",2800.0,36.4202778,-81.47361109999999
42913,"Jefferson, OH",7168.75,41.7386111,-80.77
42994,"Jena, LA",6758.9473684211,31.683055600000003,-92.1336111
43021,"Jennings, LA",2327.2727272726997,30.2222222,-92.6569444
43048,"Jerome, ID",2050.0,42.724166700000005,-114.51777779999999
43064,"Jersey Shore, PA",8500.0,41.201944399999995,-77.26472220000001
43075,"Jerseyville, IL",6300.0,39.12,-90.3283333
43102,"Jesup, GA",1375.0,31.607222200000002,-81.8855556
43115,"Jewett City, CT",3830.0,41.6066667,-71.98138890000001
43129,"Jim Thorpe, PA",39262.5,40.8758333,-75.7327778
43210,"Johnson City, TN",2627.2,36.3133333,-82.3536111
43217,"Johnson Creek, WI",2050.0,43.076111100000006,-88.7741667
43227,"Johnson Lane, NV",20514.8125,39.048055600000005,-119.7211111
43237,"Johnston City, IL",3060.0,37.820555600000006,-88.9275
43253,"Johnstown, CO",800.0,40.33694439999999,-104.91166670000001
43264,"Johnstown, OH",5320.0,40.153611100000006,-82.6852778
43291,"Johnstown, PA",9884.9285714286,40.326666700000004,-78.92222220000001
43383,"Jones Creek, TX",69809.7222222222,28.968333299999998,-95.455
43345,"Jonesboro, AR",2855.0,35.8422222,-90.7041667
43372,"Jonesboro, LA",2400.0,32.241111100000005,-92.7158333
43399,"Joplin, MO",5455.88,37.084166700000004,-94.5130556
43426,"Jordan, MN",1700.0,44.6669444,-93.6266667
43453,"Juana Dï¿½az, PR",3000.0,18.051389,-66.50666700000001
43507,"Junction City, KS",1126.0,39.028611100000006,-96.83111109999999
43534,"Junction City, OR",3500.0,44.21944439999999,-123.20444440000001
43480,"Junction, TX",2400.0,30.489166700000002,-99.7716667
43561,"Juneau, AK",3850.0,58.301944400000004,-134.4197222
43571,"Juneau, WI",123220.0,43.40555560000001,-88.705
43595,"Jupiter Farms, FL",85259.25,26.920329,-80.191764
43604,"Justin, TX",3150.0,33.0847222,-97.2958333
43615,"Kahului, HI",114990.576923077,20.894722199999997,-156.47
43642,"Kailua (Hawaii County)--Holualoa, HI",114990.576923077,19.6227778,-155.9522222
43669,"Kailua (Honolulu County)--Kaneohe, HI",114990.576923077,21.418055600000002,-157.8036111
43696,"Kalaheo, HI",114990.576923077,21.9286111,-159.53027780000002
43711,"Kalama, WA",43103.1818181818,46.0086111,-122.84333329999998
43723,"Kalamazoo, MI",2466.6666666667,42.2916667,-85.58722220000001
43777,"Kalispell, MT",1116.6666666667,48.1958333,-114.31194440000002
43804,"Kalkaska, MI",3185.0,44.7341667,-85.1758333
43818,"Kamas, UT",1820.0,40.643055600000004,-111.28
43831,"Kanab, UT",5795.833333333299,37.0475,-112.52555559999999
43858,"Kane, PA",6520.0,41.6627778,-78.81138890000001
43885,"Kankakee, IL",140155.083333333,41.12,-87.86111109999999
43912,"Kansas City, MO--KS",60467.5,39.0997222,-94.5783333
43939,"Kapaa, HI",114990.576923077,22.0783333,-159.3219444
43966,"Kapaau, HI",114990.576923077,20.2338889,-155.80194440000002
43993,"Kaplan, LA",16190.0,29.997777799999998,-92.2847222
44020,"Karnes City, TX",3276.5,26.3327778,-97.4391667
44047,"Kasson, MN",17447.5,44.03,-92.7505556
44074,"Kaufman, TX",78975.0,32.58888889999999,-96.3086111
44128,"Kayenta, AZ",2560.0,36.7277778,-110.25388889999999
44155,"Kearney, MO",60467.5,39.3677778,-94.3619444
44182,"Kearney, NE",1687.5,40.6994444,-99.08111109999999
44209,"Keene, NH",2300.0,42.9336111,-72.27861109999999
44236,"Kekaha, HI",114990.576923077,21.9711111,-159.715
44263,"Kellogg, ID",1360.0,47.5383333,-116.11833329999999
44290,"Kelseyville, CA",3712.3333333333003,38.978055600000005,-122.83833329999999
44317,"Kemmerer, WY",683.3333333333001,41.7925,-110.53694440000001
44344,"Kenai, AK",3850.0,60.5544444,-151.2583333
44371,"Kendallville, IN",1500.0,41.4413889,-85.265
44398,"Kenedy, TX",2235.7142857143,28.818888899999997,-97.8483333
44425,"Kennebunk, ME",2300.0,43.383888899999995,-70.5452778
44452,"Kennett, MO",3000.0,36.2361111,-90.0555556
44479,"Kennewick--Pasco, WA",5660.0,46.2397222,-119.09944440000001
44506,"Kenosha, WI--IL",33104.0,42.5847222,-87.8211111
44533,"Kenton, OH",1770.0,40.646944399999995,-83.60972220000001
44560,"Keokuk, IA--IL",5292.8571428571995,40.3972222,-91.38472220000001
44587,"Kerman, CA",8432.0,36.72361110000001,-120.0588889
44614,"Kermit, TX",2800.0,31.8575,-103.09222220000001
44641,"Kerrville, TX",2400.0,30.0472222,-99.14
44668,"Ketchikan, AK",3850.0,55.34222220000001,-131.6461111
44695,"Ketchum, ID",2050.0,43.680833299999996,-114.36277779999999
44722,"Kewanee, IL",525.0,41.2455556,-89.9247222
44738,"Kewaunee, WI",1785.0,44.4583333,-87.5030556
44789,"Key Largo, FL",12025.0,27.9091667,-82.7875
44857,"Key West, FL",16333.333333333301,24.555277800000002,-81.78277779999999
44803,"Keyser, WV--MD",7803.6,39.4408333,-78.9741667
44830,"Keystone Heights, FL",11296.0625,29.7858333,-82.0316667
44884,"Kiel--New Holstein, WI",3607.0,43.95,-88.0841667
44911,"Kihei, HI",114990.576923077,20.785,-156.4655556
44925,"Kilauea, HI",114990.576923077,22.2119444,-159.41222219999997
44938,"Kilgore, TX",2922.5,32.3861111,-94.8755556
44965,"Kill Devil Hills, NC",3430.0,35.313055600000006,-80.2611111
44992,"Killeen, TX",5073.4375,31.116944399999994,-97.7275
45032,"Kimberling City, MO",4780.0,36.6333333,-93.41666670000001
45073,"King City, CA",7955.0,36.2127778,-121.125
45112,"King George, VA",3500.0,38.268055600000004,-77.18472220000001
45100,"Kingfisher, OK",27552.3076923077,35.861388899999994,-97.9313889
45127,"Kingman, AZ",5795.833333333299,35.1894444,-114.0522222
45154,"Kingman, KS",9540.0,37.6458333,-98.1133333
45181,"Kingsland, TX",2400.0,30.658055600000004,-98.44027779999999
45235,"Kingsport, TN--VA",8190.3529411765,36.548333299999996,-82.5619444
45262,"Kingston, NY",28526.0,41.9269444,-73.9977778
45289,"Kingstree, SC",966.6666666666999,33.6675,-79.8308333
45316,"Kingsville, TX",10394.4285714286,27.515555600000003,-97.8558333
